TOTAL MSG COUNT,MSG 26 COUNT,THIS CSV MSG COUNT,Synch ,Message ID ,Byte Count ,Checksum , Time Stamp (seconds), GPS Week , GPS Seconds (second), GPS Sec. (Fraction) (second), Delta_Vel_X (m/sec), Delta_Vel_Y (m/sec), Delta_Vel_Z (m/sec), Delta_Att_X (rad/sec), Delta_Att_Y (rad/sec), Delta_Att_Z (rad/sec), Lever_Arm_X (meter), Lever_Arm_Y (meter), Lever_Arm_Z (meter), Acc_Bias_X (ug), Acc_Bias_Y (ug), Acc_Bias_Z (ug), Gyro_Bias_X (deg/hr), Gyro_Bias_Y (deg/hr), Gyro_Bias_Z (deg/hr), Acc_Scale_Fac_X (ppm), Acc_Scale_Fac_Y (ppm), Acc_Scale_Fac_Z (ppm),Gyro_Scale_Fac_X (ppm),Gyro_Scale_Fac_Y (ppm),Gyro_Scale_Fac_Z (ppm),Mounting_Angle_X (degrees),Mounting_Angle_Y (degrees),Mounting_Angle_Z (degrees),Comp_delta_vel_X (m/s),Comp_delta_vel_Y (m/s),Comp_delta_vel_Z (m/s),Base_Accel_SF_X (ppm),Base_Accel_SF_Y (ppm),Base_Accel_SF_Z (ppm),Base_Gyro_SF_X (ppm),Base_Gyro_SF_Y (ppm),Base_Gyro_SF_Z (ppm),Align_Heading (degree),Align_Pitch (degree),Align_Roll (degree),ECEF POS_X (m),ECEF POS_Y (m),ECEF POS_Z (m),VEL_N (m/s),VEL_E (m/s),VEL_D (m/s),ACC_N (m/s^2),ACC_E (m/s^2),ACC_D (m/s^2),Heading (degree),Pitch (degree),Roll (degree),Heading Rate (degree),Pitch Rate (degree),Roll Rate (degree),Checksum Failure Count ,IMU Health ,Spare1 ,Comp delta Vector Valid ,IMU Health Out Latch ,Mounting Angle Valid ,IMU Valid ,Platform Valid ,IMU Make ,Platform ,Align Command ,Align Method ,Align Status ,Align Mode ,Attitude Data Avail ,Heading Data Avail ,Velocity Data Avail ,In Motion Valid ,Ready to Align ,Need To Align ,Spare ,Filter Hold Control ,Filter Sub Mode ,Filter Mode ,Lever Arm Enable ,INS State ,Tracker Aiding Enable ,Tracker Static Aiding ,Sim Perfect IMU ,ZUPT control ,Spare , MSec Fraction (second),TOA (millsecond),IMU System Time ,Comp_delta_att_X (rad/s),Comp_delta_att_Y (rad/s),Comp_delta_att_Z (rad/s),
4,1,1,'0x81FF',26,312,'0x7B4E',         54309.09888,1899,54308,        0.4800615674,0,0,0,0,0,0,0,0,0,0,0,0,0,0,0,0,0,0,0,0,0,0,0,0,0,0,0,      0.001862645033,      0.001862645033,      0.001862645033,    2.910383046e-005,    2.910383046e-005,    2.910383046e-005,0,0,0,0,0,0,0,0,0,0,0,0,0,0,0,0,0,0,0,5,0,0,5,0,1,1,1,4,0,0,0,1,0,0,0,0,0,1,0,0,0,0,0,2,0,0,0,0,0,                   0,0,0,0,0,0,
8,2,2,'0x81FF',26,312,'0xADDC',         54310.09888,1899,54309,        0.5000615674,0,0,0,0,0,0,0,0,0,0,0,0,0,0,0,0,0,0,0,0,0,0,0,0,0,0,0,      0.001862645033,      0.001862645033,      0.001862645033,    2.910383046e-005,    2.910383046e-005,    2.910383046e-005,0,0,0,0,0,0,0,0,0,0,0,0,0,0,0,0,0,0,0,5,0,0,5,0,1,1,1,4,0,0,0,1,0,0,0,0,0,1,0,0,0,0,0,2,0,0,0,0,0,                   0,0,0,0,0,0,
12,3,3,'0x81FF',26,312,'0xE06B',         54311.09888,1899,54310,        0.5200615674,0,0,0,0,0,0,0,0,0,0,0,0,0,0,0,0,0,0,0,0,0,0,0,0,0,0,0,      0.001862645033,      0.001862645033,      0.001862645033,    2.910383046e-005,    2.910383046e-005,    2.910383046e-005,0,0,0,0,0,0,0,0,0,0,0,0,0,0,0,0,0,0,0,5,0,0,5,0,1,1,1,4,0,0,0,1,0,0,0,0,0,1,0,0,0,0,0,2,0,0,0,0,0,                   0,0,0,0,0,0,
16,4,4,'0x81FF',26,312,'0x12F9',         54312.09888,1899,54311,        0.5400615674,0,0,0,0,0,0,0,0,0,0,0,0,0,0,0,0,0,0,0,0,0,0,0,0,0,0,0,      0.001862645033,      0.001862645033,      0.001862645033,    2.910383046e-005,    2.910383046e-005,    2.910383046e-005,0,0,0,0,0,0,0,0,0,0,0,0,0,0,0,0,0,0,0,5,0,0,5,0,1,1,1,4,0,0,0,1,0,0,0,0,0,1,0,0,0,0,0,2,0,0,0,0,0,                   0,0,0,0,0,0,
18,5,5,'0x81FF',26,312,'0x4587',         54313.09888,1899,54312,        0.5600615675,0,0,0,0,0,0,0,0,0,0,0,0,0,0,0,0,0,0,0,0,0,0,0,0,0,0,0,      0.001862645033,      0.001862645033,      0.001862645033,    2.910383046e-005,    2.910383046e-005,    2.910383046e-005,0,0,0,0,0,0,0,0,0,0,0,0,0,0,0,0,0,0,0,5,0,0,5,0,1,1,1,4,0,0,0,1,0,0,0,0,0,1,0,0,0,0,0,2,0,0,0,0,0,                   0,0,0,0,0,0,
20,6,6,'0x81FF',26,312,'0x7816',         54314.09888,1899,54313,        0.5800615675,0,0,0,0,0,0,0,0,0,0,0,0,0,0,0,0,0,0,0,0,0,0,0,0,0,0,0,      0.001862645033,      0.001862645033,      0.001862645033,    2.910383046e-005,    2.910383046e-005,    2.910383046e-005,0,0,0,0,0,0,0,0,0,0,0,0,0,0,0,0,0,0,0,5,0,0,5,0,1,1,1,4,0,0,0,1,0,0,0,0,0,1,0,0,0,0,0,2,0,0,0,0,0,                   0,0,0,0,0,0,
69,7,7,'0x81FF',26,312,'0x6B1A',         1.098876953,0,0,                   0,0,0,0,0,0,0,0,0,0,0,0,0,0,0,0,0,0,0,0,0,0,0,0,0,0,0,0,0,0,0,0,0,0,0,0,0,0,0,0,0,0,0,0,0,0,0,0,0,0,0,0,0,0,0,0,0,0,0,0,0,0,0,0,0,0,0,0,0,0,0,0,0,0,0,0,0,0,0,0,0,0,0,                   0,0,0,0,0,0,
73,8,8,'0x81FF',26,312,'0x5B1A',         2.098876953,0,0,                   0,0,0,0,0,0,0,0,0,0,0,0,0,0,0,0,0,0,0,0,0,0,0,0,0,0,0,0,0,0,0,0,0,0,0,0,0,0,0,0,0,0,0,0,0,0,0,0,0,0,0,0,0,0,0,0,0,0,0,0,0,0,0,0,0,0,0,0,0,0,0,0,0,0,0,0,0,0,0,0,0,0,0,                   0,0,0,0,0,0,
77,9,9,'0x81FF',26,312,'0x4B1A',         3.098876953,0,0,                   0,0,0,0,0,0,0,0,0,0,0,0,0,0,0,0,0,0,0,0,0,0,0,0,0,0,0,0,0,0,0,0,0,0,0,0,0,0,0,0,0,0,0,0,0,0,0,0,0,0,0,0,0,0,0,0,0,0,0,0,0,0,0,0,0,0,0,0,0,0,0,0,0,0,0,0,0,0,0,0,0,0,0,                   0,0,0,0,0,0,
81,10,10,'0x81FF',26,312,'0xC911',         4.098876953,1513,3,        0.1199999999,0,0,0,0,0,0,0,0,0,0,0,0,0,0,0,0,0,0,0,0,0,0,0,0,0,0,0,      0.001862645033,      0.001862645033,      0.001862645033,    2.910383046e-005,    2.910383046e-005,    2.910383046e-005,0,0,0,0,0,0,0,0,0,0,0,0,0,0,0,0,0,0,0,5,0,0,5,0,1,1,1,4,0,0,0,1,0,0,0,0,0,1,0,0,0,0,0,2,0,0,0,0,0,                   0,0,0,0,0,0,
85,11,11,'0x81FF',26,312,'0xFB9F',         5.098876953,1513,4,        0.1399999999,0,0,0,0,0,0,0,0,0,0,0,0,0,0,0,0,0,0,0,0,0,0,0,0,0,0,0,      0.001862645033,      0.001862645033,      0.001862645033,    2.910383046e-005,    2.910383046e-005,    2.910383046e-005,0,0,0,0,0,0,0,0,0,0,0,0,0,0,0,0,0,0,0,5,0,0,5,0,1,1,1,4,0,0,0,1,0,0,0,0,0,1,0,0,0,0,0,2,0,0,0,0,0,                   0,0,0,0,0,0,
89,12,12,'0x81FF',26,312,'0x2E2E',         6.098876953,1513,5,        0.1599999999,0,0,0,0,0,0,0,0,0,0,0,0,0,0,0,0,0,0,0,0,0,0,0,0,0,0,0,      0.001862645033,      0.001862645033,      0.001862645033,    2.910383046e-005,    2.910383046e-005,    2.910383046e-005,0,0,0,0,0,0,0,0,0,0,0,0,0,0,0,0,0,0,0,5,0,0,5,0,1,1,1,4,0,0,0,1,0,0,0,0,0,1,0,0,0,0,0,2,0,0,0,0,0,                   0,0,0,0,0,0,
93,13,13,'0x81FF',26,312,'0x60BC',         7.098876953,1513,6,        0.1799999999,0,0,0,0,0,0,0,0,0,0,0,0,0,0,0,0,0,0,0,0,0,0,0,0,0,0,0,      0.001862645033,      0.001862645033,      0.001862645033,    2.910383046e-005,    2.910383046e-005,    2.910383046e-005,0,0,0,0,0,0,0,0,0,0,0,0,0,0,0,0,0,0,0,5,0,0,5,0,1,1,1,4,0,0,0,1,0,0,0,0,0,1,0,0,0,0,0,2,0,0,0,0,0,                   0,0,0,0,0,0,
97,14,14,'0x81FF',26,312,'0x3244',         8.098876953,1513,7,        0.4669999999,0,0,0,0,0,0,0,0,0,0,0,0,0,0,0,0,0,0,0,0,0,0,0,0,0,0,0,      0.001862645033,      0.001862645033,      0.001862645033,    2.910383046e-005,    2.910383046e-005,    2.910383046e-005,0,0,0,0,0,0,0,0,0,0,0,0,0,0,0,0,0,0,0,5,0,0,5,0,1,1,1,4,0,0,0,1,0,0,0,0,0,1,0,0,0,0,0,2,0,0,0,0,0,                   0,0,0,0,0,0,
101,15,15,'0x81FF',26,312,'0xC868',         9.098876953,1513,8,                0.49,0,0,0,0,0,0,0,0,0,0,0,0,0,0,0,0,0,0,0,0,0,0,0,0,0,0,0,      0.001862645033,      0.001862645033,      0.001862645033,    2.910383046e-005,    2.910383046e-005,    2.910383046e-005,0,0,0,0,0,0,0,0,0,0,0,0,0,0,0,0,0,0,0,5,0,0,5,0,1,1,1,4,0,0,0,1,0,0,0,0,0,1,0,0,0,0,0,2,0,0,0,0,0,                   0,0,0,0,0,0,
105,16,16,'0x81FF',26,312,'0xFAF6',         10.09887695,1513,9,                0.51,0,0,0,0,0,0,0,0,0,0,0,0,0,0,0,0,0,0,0,0,0,0,0,0,0,0,0,      0.001862645033,      0.001862645033,      0.001862645033,    2.910383046e-005,    2.910383046e-005,    2.910383046e-005,0,0,0,0,0,0,0,0,0,0,0,0,0,0,0,0,0,0,0,5,0,0,5,0,1,1,1,4,0,0,0,1,0,0,0,0,0,1,0,0,0,0,0,2,0,0,0,0,0,                   0,0,0,0,0,0,
109,17,17,'0x81FF',26,312,'0x2D84',         11.09887695,1513,10,                0.53,0,0,0,0,0,0,0,0,0,0,0,0,0,0,0,0,0,0,0,0,0,0,0,0,0,0,0,      0.001862645033,      0.001862645033,      0.001862645033,    2.910383046e-005,    2.910383046e-005,    2.910383046e-005,0,0,0,0,0,0,0,0,0,0,0,0,0,0,0,0,0,0,0,5,0,0,5,0,1,1,1,4,0,0,0,1,0,0,0,0,0,1,0,0,0,0,0,2,0,0,0,0,0,                   0,0,0,0,0,0,
113,18,18,'0x81FF',26,312,'0x6013',         12.09887695,1513,11,                0.55,0,0,0,0,0,0,0,0,0,0,0,0,0,0,0,0,0,0,0,0,0,0,0,0,0,0,0,      0.001862645033,      0.001862645033,      0.001862645033,    2.910383046e-005,    2.910383046e-005,    2.910383046e-005,0,0,0,0,0,0,0,0,0,0,0,0,0,0,0,0,0,0,0,5,0,0,5,0,1,1,1,4,0,0,0,1,0,0,0,0,0,1,0,0,0,0,0,2,0,0,0,0,0,                   0,0,0,0,0,0,
117,19,19,'0x81FF',26,312,'0x92A1',         13.09887695,1513,12,        0.5700000001,0,0,0,0,0,0,0,0,0,0,0,0,0,0,0,0,0,0,0,0,0,0,0,0,0,0,0,      0.001862645033,      0.001862645033,      0.001862645033,    2.910383046e-005,    2.910383046e-005,    2.910383046e-005,0,0,0,0,0,0,0,0,0,0,0,0,0,0,0,0,0,0,0,5,0,0,5,0,1,1,1,4,0,0,0,1,0,0,0,0,0,1,0,0,0,0,0,2,0,0,0,0,0,                   0,0,0,0,0,0,
121,20,20,'0x81FF',26,312,'0xC52F',         14.09887695,1513,13,        0.5900000001,0,0,0,0,0,0,0,0,0,0,0,0,0,0,0,0,0,0,0,0,0,0,0,0,0,0,0,      0.001862645033,      0.001862645033,      0.001862645033,    2.910383046e-005,    2.910383046e-005,    2.910383046e-005,0,0,0,0,0,0,0,0,0,0,0,0,0,0,0,0,0,0,0,5,0,0,5,0,1,1,1,4,0,0,0,1,0,0,0,0,0,1,0,0,0,0,0,2,0,0,0,0,0,                   0,0,0,0,0,0,
125,21,21,'0x81FF',26,312,'0xF7BE',         15.09887695,1513,14,        0.6100000001,0,0,0,0,0,0,0,0,0,0,0,0,0,0,0,0,0,0,0,0,0,0,0,0,0,0,0,      0.001862645033,      0.001862645033,      0.001862645033,    2.910383046e-005,    2.910383046e-005,    2.910383046e-005,0,0,0,0,0,0,0,0,0,0,0,0,0,0,0,0,0,0,0,5,0,0,5,0,1,1,1,4,0,0,0,1,0,0,0,0,0,1,0,0,0,0,0,2,0,0,0,0,0,                   0,0,0,0,0,0,
174,22,22,'0x81FF',26,312,'0x6B1A',         1.098876953,0,0,                   0,0,0,0,0,0,0,0,0,0,0,0,0,0,0,0,0,0,0,0,0,0,0,0,0,0,0,0,0,0,0,0,0,0,0,0,0,0,0,0,0,0,0,0,0,0,0,0,0,0,0,0,0,0,0,0,0,0,0,0,0,0,0,0,0,0,0,0,0,0,0,0,0,0,0,0,0,0,0,0,0,0,0,                   0,0,0,0,0,0,
178,23,23,'0x81FF',26,312,'0x5B1A',         2.098876953,0,0,                   0,0,0,0,0,0,0,0,0,0,0,0,0,0,0,0,0,0,0,0,0,0,0,0,0,0,0,0,0,0,0,0,0,0,0,0,0,0,0,0,0,0,0,0,0,0,0,0,0,0,0,0,0,0,0,0,0,0,0,0,0,0,0,0,0,0,0,0,0,0,0,0,0,0,0,0,0,0,0,0,0,0,0,                   0,0,0,0,0,0,
182,24,24,'0x81FF',26,312,'0x4B1A',         3.098876953,0,0,                   0,0,0,0,0,0,0,0,0,0,0,0,0,0,0,0,0,0,0,0,0,0,0,0,0,0,0,0,0,0,0,0,0,0,0,0,0,0,0,0,0,0,0,0,0,0,0,0,0,0,0,0,0,0,0,0,0,0,0,0,0,0,0,0,0,0,0,0,0,0,0,0,0,0,0,0,0,0,0,0,0,0,0,                   0,0,0,0,0,0,
186,25,25,'0x81FF',26,312,'0x27CA',         4.098876953,1513,3,        0.1099999999,0,0,0,0,0,0,0,0,0,0,0,0,0,0,0,0,0,0,0,0,0,0,0,0,0,0,0,      0.001862645033,      0.001862645033,      0.001862645033,    2.910383046e-005,    2.910383046e-005,    2.910383046e-005,0,0,0,0,0,0,0,0,0,0,0,0,0,0,0,0,0,0,0,5,0,0,5,0,1,1,1,4,0,0,0,1,0,0,0,0,0,1,0,0,0,0,0,2,0,0,0,0,0,                   0,0,0,0,0,0,
190,26,26,'0x81FF',26,312,'0x5A58',         5.098876953,1513,4,        0.1299999999,0,0,0,0,0,0,0,0,0,0,0,0,0,0,0,0,0,0,0,0,0,0,0,0,0,0,0,      0.001862645033,      0.001862645033,      0.001862645033,    2.910383046e-005,    2.910383046e-005,    2.910383046e-005,0,0,0,0,0,0,0,0,0,0,0,0,0,0,0,0,0,0,0,5,0,0,5,0,1,1,1,4,0,0,0,1,0,0,0,0,0,1,0,0,0,0,0,2,0,0,0,0,0,                   0,0,0,0,0,0,
194,27,27,'0x81FF',26,312,'0x8CE6',         6.098876953,1513,5,        0.1499999999,0,0,0,0,0,0,0,0,0,0,0,0,0,0,0,0,0,0,0,0,0,0,0,0,0,0,0,      0.001862645033,      0.001862645033,      0.001862645033,    2.910383046e-005,    2.910383046e-005,    2.910383046e-005,0,0,0,0,0,0,0,0,0,0,0,0,0,0,0,0,0,0,0,5,0,0,5,0,1,1,1,4,0,0,0,1,0,0,0,0,0,1,0,0,0,0,0,2,0,0,0,0,0,                   0,0,0,0,0,0,
198,28,28,'0x81FF',26,312,'0xBF74',         7.098876953,1513,6,        0.1699999999,0,0,0,0,0,0,0,0,0,0,0,0,0,0,0,0,0,0,0,0,0,0,0,0,0,0,0,      0.001862645033,      0.001862645033,      0.001862645033,    2.910383046e-005,    2.910383046e-005,    2.910383046e-005,0,0,0,0,0,0,0,0,0,0,0,0,0,0,0,0,0,0,0,5,0,0,5,0,1,1,1,4,0,0,0,1,0,0,0,0,0,1,0,0,0,0,0,2,0,0,0,0,0,                   0,0,0,0,0,0,
202,29,29,'0x81FF',26,312,'0xF203',         8.098876953,1513,7,        0.1899999999,0,0,0,0,0,0,0,0,0,0,0,0,0,0,0,0,0,0,0,0,0,0,0,0,0,0,0,      0.001862645033,      0.001862645033,      0.001862645033,    2.910383046e-005,    2.910383046e-005,    2.910383046e-005,0,0,0,0,0,0,0,0,0,0,0,0,0,0,0,0,0,0,0,5,0,0,5,0,1,1,1,4,0,0,0,1,0,0,0,0,0,1,0,0,0,0,0,2,0,0,0,0,0,                   0,0,0,0,0,0,
206,30,30,'0x81FF',26,312,'0x2491',         9.098876953,1513,8,                0.21,0,0,0,0,0,0,0,0,0,0,0,0,0,0,0,0,0,0,0,0,0,0,0,0,0,0,0,      0.001862645033,      0.001862645033,      0.001862645033,    2.910383046e-005,    2.910383046e-005,    2.910383046e-005,0,0,0,0,0,0,0,0,0,0,0,0,0,0,0,0,0,0,0,5,0,0,5,0,1,1,1,4,0,0,0,1,0,0,0,0,0,1,0,0,0,0,0,2,0,0,0,0,0,                   0,0,0,0,0,0,
210,31,31,'0x81FF',26,312,'0x571F',         10.09887695,1513,9,                0.23,0,0,0,0,0,0,0,0,0,0,0,0,0,0,0,0,0,0,0,0,0,0,0,0,0,0,0,      0.001862645033,      0.001862645033,      0.001862645033,    2.910383046e-005,    2.910383046e-005,    2.910383046e-005,0,0,0,0,0,0,0,0,0,0,0,0,0,0,0,0,0,0,0,5,0,0,5,0,1,1,1,4,0,0,0,1,0,0,0,0,0,1,0,0,0,0,0,2,0,0,0,0,0,                   0,0,0,0,0,0,
214,32,32,'0x81FF',26,312,'0x89AD',         11.09887695,1513,10,                0.25,0,0,0,0,0,0,0,0,0,0,0,0,0,0,0,0,0,0,0,0,0,0,0,0,0,0,0,      0.001862645033,      0.001862645033,      0.001862645033,    2.910383046e-005,    2.910383046e-005,    2.910383046e-005,0,0,0,0,0,0,0,0,0,0,0,0,0,0,0,0,0,0,0,5,0,0,5,0,1,1,1,4,0,0,0,1,0,0,0,0,0,1,0,0,0,0,0,2,0,0,0,0,0,                   0,0,0,0,0,0,
218,33,33,'0x81FF',26,312,'0xBC3C',         12.09887695,1513,11,                0.27,0,0,0,0,0,0,0,0,0,0,0,0,0,0,0,0,0,0,0,0,0,0,0,0,0,0,0,      0.001862645033,      0.001862645033,      0.001862645033,    2.910383046e-005,    2.910383046e-005,    2.910383046e-005,0,0,0,0,0,0,0,0,0,0,0,0,0,0,0,0,0,0,0,5,0,0,5,0,1,1,1,4,0,0,0,1,0,0,0,0,0,1,0,0,0,0,0,2,0,0,0,0,0,                   0,0,0,0,0,0,
222,34,34,'0x81FF',26,312,'0xEECA',         13.09887695,1513,12,                0.29,0,0,0,0,0,0,0,0,0,0,0,0,0,0,0,0,0,0,0,0,0,0,0,0,0,0,0,      0.001862645033,      0.001862645033,      0.001862645033,    2.910383046e-005,    2.910383046e-005,    2.910383046e-005,0,0,0,0,0,0,0,0,0,0,0,0,0,0,0,0,0,0,0,5,0,0,5,0,1,1,1,4,0,0,0,1,0,0,0,0,0,1,0,0,0,0,0,2,0,0,0,0,0,                   0,0,0,0,0,0,
226,35,35,'0x81FF',26,312,'0x2158',         14.09887695,1513,13,        0.3100000001,0,0,0,0,0,0,0,0,0,0,0,0,0,0,0,0,0,0,0,0,0,0,0,0,0,0,0,      0.001862645033,      0.001862645033,      0.001862645033,    2.910383046e-005,    2.910383046e-005,    2.910383046e-005,0,0,0,0,0,0,0,0,0,0,0,0,0,0,0,0,0,0,0,5,0,0,5,0,1,1,1,4,0,0,0,1,0,0,0,0,0,1,0,0,0,0,0,2,0,0,0,0,0,                   0,0,0,0,0,0,
230,36,36,'0x81FF',26,312,'0x53E7',         15.09887695,1513,14,        0.3300000001,0,0,0,0,0,0,0,0,0,0,0,0,0,0,0,0,0,0,0,0,0,0,0,0,0,0,0,      0.001862645033,      0.001862645033,      0.001862645033,    2.910383046e-005,    2.910383046e-005,    2.910383046e-005,0,0,0,0,0,0,0,0,0,0,0,0,0,0,0,0,0,0,0,5,0,0,5,0,1,1,1,4,0,0,0,1,0,0,0,0,0,1,0,0,0,0,0,2,0,0,0,0,0,                   0,0,0,0,0,0,
234,37,37,'0x81FF',26,312,'0x8674',         16.09887695,1513,15,        0.3500000001,0,0,0,0,0,0,0,0,0,0,0,0,0,0,0,0,0,0,0,0,0,0,0,0,0,0,0,      0.001862645033,      0.001862645033,      0.001862645033,    2.910383046e-005,    2.910383046e-005,    2.910383046e-005,0,0,0,0,0,0,0,0,0,0,0,0,0,0,0,0,0,0,0,5,0,0,5,0,1,1,1,4,0,0,0,1,0,0,0,0,0,1,0,0,0,0,0,2,0,0,0,0,0,                   0,0,0,0,0,0,
238,38,38,'0x81FF',26,312,'0x37ED',         54392.33691,1513,16,        0.3700000001,0,0,0,0,0,0,0,0,0,0,0,0,0,0,0,0,0,0,0,0,0,0,0,0,0,0,0,      0.001862645033,      0.001862645033,      0.001862645033,    2.910383046e-005,    2.910383046e-005,    2.910383046e-005,0,0,0,0,0,0,0,0,0,0,0,0,0,0,0,0,0,0,0,5,0,0,5,0,1,1,1,4,0,0,0,1,0,0,0,0,0,1,0,0,0,0,0,2,0,0,0,0,0,                   0,0,0,0,0,0,
242,39,39,'0x81FF',26,312,'0x5E12',         54393.33691,1513,54392,        0.6279147472,0,0,0,0,0,0,0,0,0,0,0,0,0,0,0,0,0,0,0,0,0,0,0,0,0,0,0,      0.001862645033,      0.001862645033,      0.001862645033,    2.910383046e-005,    2.910383046e-005,    2.910383046e-005,0,0,0,0,0,0,0,0,0,0,0,0,0,0,0,0,0,0,0,5,0,0,5,0,1,1,1,4,0,0,0,1,0,0,0,0,0,1,0,0,0,0,0,2,0,0,0,0,0,                   0,0,0,0,0,0,
246,40,40,'0x81FF',26,312,'0x8839',         54394.09985,1513,54393,        0.6479154744,0,0,0,0,0,0,0,0,0,0,0,0,0,0,0,0,0,0,0,0,0,0,0,0,0,0,0,      0.001862645033,      0.001862645033,      0.001862645033,    2.910383046e-005,    2.910383046e-005,    2.910383046e-005,0,0,0,0,0,0,0,0,0,0,0,0,0,0,0,0,0,0,0,5,0,0,5,0,1,1,1,4,0,0,0,1,0,0,0,0,0,1,0,0,0,0,0,2,0,0,0,0,0,                   0,0,0,0,0,0,
250,41,41,'0x81FF',26,312,'0x151F',         54395.09985,1513,54394,        0.6709160251,0,0,0,0,0,0,0,0,0,0,0,0,0,0,0,0,0,0,0,0,0,0,0,0,0,0,0,      0.001862645033,      0.001862645033,      0.001862645033,    2.910383046e-005,    2.910383046e-005,    2.910383046e-005,0,0,0,0,0,0,0,0,0,0,0,0,0,0,0,0,0,0,0,5,0,0,5,0,1,1,1,4,0,0,0,1,0,0,0,0,0,1,0,0,0,0,0,2,0,0,0,0,0,                   0,0,0,0,0,0,
254,42,42,'0x81FF',26,312,'0x3B93',         54396.09985,1513,54395,        0.6909167466,0,0,0,0,0,0,0,0,0,0,0,0,0,0,0,0,0,0,0,0,0,0,0,0,0,0,0,      0.001862645033,      0.001862645033,      0.001862645033,    2.910383046e-005,    2.910383046e-005,    2.910383046e-005,0,0,0,0,0,0,0,0,0,0,0,0,0,0,0,0,0,0,0,5,0,0,5,0,1,1,1,4,0,0,0,1,0,0,0,0,0,1,0,0,0,0,0,2,0,0,0,0,0,                   0,0,0,0,0,0,
258,43,43,'0x81FF',26,312,'0x61FF',         54397.09985,1513,54396,        0.7109174698,0,0,0,0,0,0,0,0,0,0,0,0,0,0,0,0,0,0,0,0,0,0,0,0,0,0,0,      0.001862645033,      0.001862645033,      0.001862645033,    2.910383046e-005,    2.910383046e-005,    2.910383046e-005,0,0,0,0,0,0,0,0,0,0,0,0,0,0,0,0,0,0,0,5,0,0,5,0,1,1,1,4,0,0,0,1,0,0,0,0,0,1,0,0,0,0,0,2,0,0,0,0,0,                   0,0,0,0,0,0,
262,44,44,'0x81FF',26,312,'0x8885',         54398.09985,1513,54397,        0.7309181869,0,0,0,0,0,0,0,0,0,0,0,0,0,0,0,0,0,0,0,0,0,0,0,0,0,0,0,      0.001862645033,      0.001862645033,      0.001862645033,    2.910383046e-005,    2.910383046e-005,    2.910383046e-005,0,0,0,0,0,0,0,0,0,0,0,0,0,0,0,0,0,0,0,5,0,0,5,0,1,1,1,4,0,0,0,1,0,0,0,0,0,1,0,0,0,0,0,2,0,0,0,0,0,                   0,0,0,0,0,0,
266,45,45,'0x81FF',26,312,'0xAEFA',         54399.09985,1513,54398,         0.750918908,0,0,0,0,0,0,0,0,0,0,0,0,0,0,0,0,0,0,0,0,0,0,0,0,0,0,0,      0.001862645033,      0.001862645033,      0.001862645033,    2.910383046e-005,    2.910383046e-005,    2.910383046e-005,0,0,0,0,0,0,0,0,0,0,0,0,0,0,0,0,0,0,0,5,0,0,5,0,1,1,1,4,0,0,0,1,0,0,0,0,0,1,0,0,0,0,0,2,0,0,0,0,0,                   0,0,0,0,0,0,
270,46,46,'0x81FF',26,312,'0xD559',         54400.09985,1513,54399,        0.7709196343,0,0,0,0,0,0,0,0,0,0,0,0,0,0,0,0,0,0,0,0,0,0,0,0,0,0,0,      0.001862645033,      0.001862645033,      0.001862645033,    2.910383046e-005,    2.910383046e-005,    2.910383046e-005,0,0,0,0,0,0,0,0,0,0,0,0,0,0,0,0,0,0,0,5,0,0,5,0,1,1,1,4,0,0,0,1,0,0,0,0,0,1,0,0,0,0,0,2,0,0,0,0,0,                   0,0,0,0,0,0,
274,47,47,'0x81FF',26,312,'0xFBBC',         54401.09985,1513,54400,        0.7909203595,0,0,0,0,0,0,0,0,0,0,0,0,0,0,0,0,0,0,0,0,0,0,0,0,0,0,0,      0.001862645033,      0.001862645033,      0.001862645033,    2.910383046e-005,    2.910383046e-005,    2.910383046e-005,0,0,0,0,0,0,0,0,0,0,0,0,0,0,0,0,0,0,0,5,0,0,5,0,1,1,1,4,0,0,0,1,0,0,0,0,0,1,0,0,0,0,0,2,0,0,0,0,0,                   0,0,0,0,0,0,
278,48,48,'0x81FF',26,312,'0x224D',         54402.09985,1513,54401,        0.8109210741,0,0,0,0,0,0,0,0,0,0,0,0,0,0,0,0,0,0,0,0,0,0,0,0,0,0,0,      0.001862645033,      0.001862645033,      0.001862645033,    2.910383046e-005,    2.910383046e-005,    2.910383046e-005,0,0,0,0,0,0,0,0,0,0,0,0,0,0,0,0,0,0,0,5,0,0,5,0,1,1,1,4,0,0,0,1,0,0,0,0,0,1,0,0,0,0,0,2,0,0,0,0,0,                   0,0,0,0,0,0,
282,49,49,'0x81FF',26,312,'0x48BC',         54403.09985,1513,54402,        0.8309217966,0,0,0,0,0,0,0,0,0,0,0,0,0,0,0,0,0,0,0,0,0,0,0,0,0,0,0,      0.001862645033,      0.001862645033,      0.001862645033,    2.910383046e-005,    2.910383046e-005,    2.910383046e-005,0,0,0,0,0,0,0,0,0,0,0,0,0,0,0,0,0,0,0,5,0,0,5,0,1,1,1,4,0,0,0,1,0,0,0,0,0,1,0,0,0,0,0,2,0,0,0,0,0,                   0,0,0,0,0,0,
286,50,50,'0x81FF',26,312,'0x6F1D',         54404.09985,1513,54403,        0.8509225224,0,0,0,0,0,0,0,0,0,0,0,0,0,0,0,0,0,0,0,0,0,0,0,0,0,0,0,      0.001862645033,      0.001862645033,      0.001862645033,    2.910383046e-005,    2.910383046e-005,    2.910383046e-005,0,0,0,0,0,0,0,0,0,0,0,0,0,0,0,0,0,0,0,5,0,0,5,0,1,1,1,4,0,0,0,1,0,0,0,0,0,1,0,0,0,0,0,2,0,0,0,0,0,                   0,0,0,0,0,0,
290,51,51,'0x81FF',26,312,'0x95A9',         54405.09985,1513,54404,        0.8709232383,0,0,0,0,0,0,0,0,0,0,0,0,0,0,0,0,0,0,0,0,0,0,0,0,0,0,0,      0.001862645033,      0.001862645033,      0.001862645033,    2.910383046e-005,    2.910383046e-005,    2.910383046e-005,0,0,0,0,0,0,0,0,0,0,0,0,0,0,0,0,0,0,0,5,0,0,5,0,1,1,1,4,0,0,0,1,0,0,0,0,0,1,0,0,0,0,0,2,0,0,0,0,0,                   0,0,0,0,0,0,
294,52,52,'0x81FF',26,312,'0xBBFB',         54406.09985,1513,54405,        0.8909239676,0,0,0,0,0,0,0,0,0,0,0,0,0,0,0,0,0,0,0,0,0,0,0,0,0,0,0,      0.001862645033,      0.001862645033,      0.001862645033,    2.910383046e-005,    2.910383046e-005,    2.910383046e-005,0,0,0,0,0,0,0,0,0,0,0,0,0,0,0,0,0,0,0,5,0,0,5,0,1,1,1,4,0,0,0,1,0,0,0,0,0,1,0,0,0,0,0,2,0,0,0,0,0,                   0,0,0,0,0,0,
298,53,53,'0x81FF',26,312,'0xE287',         54407.09985,1513,54406,        0.9109246833,0,0,0,0,0,0,0,0,0,0,0,0,0,0,0,0,0,0,0,0,0,0,0,0,0,0,0,      0.001862645033,      0.001862645033,      0.001862645033,    2.910383046e-005,    2.910383046e-005,    2.910383046e-005,0,0,0,0,0,0,0,0,0,0,0,0,0,0,0,0,0,0,0,5,0,0,5,0,1,1,1,4,0,0,0,1,0,0,0,0,0,1,0,0,0,0,0,2,0,0,0,0,0,                   0,0,0,0,0,0,
302,54,54,'0x81FF',26,312,'0x8F4',         54408.09985,1513,54407,        0.9309254063,0,0,0,0,0,0,0,0,0,0,0,0,0,0,0,0,0,0,0,0,0,0,0,0,0,0,0,      0.001862645033,      0.001862645033,      0.001862645033,    2.910383046e-005,    2.910383046e-005,    2.910383046e-005,0,0,0,0,0,0,0,0,0,0,0,0,0,0,0,0,0,0,0,5,0,0,5,0,1,1,1,4,0,0,0,1,0,0,0,0,0,1,0,0,0,0,0,2,0,0,0,0,0,                   0,0,0,0,0,0,
306,55,55,'0x81FF',26,312,'0x2E23',         54409.09326,1899,54408,        0.9509261199,0,0,0,0,0,0,0,0,0,0,0,0,0,0,0,0,0,0,0,0,0,0,0,0,0,0,0,      0.001862645033,      0.001862645033,      0.001862645033,    2.910383046e-005,    2.910383046e-005,    2.910383046e-005,0,0,0,0,0,0,0,0,0,0,0,0,0,0,0,0,0,0,0,5,0,0,5,0,1,1,1,4,0,0,0,1,0,0,0,0,0,1,0,0,0,0,0,2,0,0,0,0,0,                   0,0,0,0,0,0,
310,56,56,'0x81FF',26,312,'0x5C4A',         54410.09326,1899,54409,        0.9643308639,0,0,0,0,0,0,0,0,0,0,0,0,0,0,0,0,0,0,0,0,0,0,0,0,0,0,0,      0.001862645033,      0.001862645033,      0.001862645033,    2.910383046e-005,    2.910383046e-005,    2.910383046e-005,0,0,0,0,0,0,0,0,0,0,0,0,0,0,0,0,0,0,0,5,0,0,5,0,1,1,1,4,0,0,0,1,0,0,0,0,1,1,0,0,0,1,0,2,0,0,0,0,0,                   0,0,0,0,0,0,
314,57,57,'0x81FF',26,312,'0x906D',         54411.09912,1899,54410,         0.984330764,0,0,0,0,0,0,0,0,0,0,0,0,0,0,0,0,0,0,0,0,0,0,0,0,0,0,0,      0.001862645033,      0.001862645033,      0.001862645033,    2.910383046e-005,    2.910383046e-005,    2.910383046e-005,0,0,0,0,0,0,0,0,0,0,0,0,0,0,0,0,0,0,0,5,0,0,5,0,1,1,1,4,0,0,0,1,0,0,0,0,1,1,0,0,0,1,0,2,0,0,0,0,0,                   0,0,0,0,0,0,
318,58,58,'0x81FF',26,312,'0xE8D3',         54412.09912,1899,54412,      0.000330766663,0,0,0,0,0,0,0,0,0,0,0,0,0,0,0,0,0,0,0,0,0,0,0,0,0,0,0,      0.001862645033,      0.001862645033,      0.001862645033,    2.910383046e-005,    2.910383046e-005,    2.910383046e-005,0,0,0,0,0,0,0,0,0,0,0,0,0,0,0,0,0,0,0,5,0,0,5,0,1,1,1,4,0,0,0,1,0,0,0,0,1,1,0,0,0,1,0,2,0,0,0,0,0,                   0,0,0,0,0,0,
322,59,59,'0x81FF',26,312,'0x1B5F',         54413.09912,1899,54413,       0.02033076715,0,0,0,0,0,0,0,0,0,0,0,0,0,0,0,0,0,0,0,0,0,0,0,0,0,0,0,      0.001862645033,      0.001862645033,      0.001862645033,    2.910383046e-005,    2.910383046e-005,    2.910383046e-005,0,0,0,0,0,0,0,0,0,0,0,0,0,0,0,0,0,0,0,5,0,0,5,0,1,1,1,4,0,0,0,1,0,0,0,0,1,1,0,0,0,1,0,2,0,0,0,0,0,                   0,0,0,0,0,0,
326,60,60,'0x81FF',26,312,'0x4DDF',         54414.09912,1899,54414,       0.04033077043,0,0,0,0,0,0,0,0,0,0,0,0,0,0,0,0,0,0,0,0,0,0,0,0,0,0,0,      0.001862645033,      0.001862645033,      0.001862645033,    2.910383046e-005,    2.910383046e-005,    2.910383046e-005,0,0,0,0,0,0,0,0,0,0,0,0,0,0,0,0,0,0,0,5,0,0,5,0,1,1,1,4,0,0,0,1,0,0,0,0,1,1,0,0,0,1,0,2,0,0,0,0,0,                   0,0,0,0,0,0,
330,61,61,'0x81FF',26,312,'0x8066',         54415.09912,1899,54415,       0.06033077231,0,0,0,0,0,0,0,0,0,0,0,0,0,0,0,0,0,0,0,0,0,0,0,0,0,0,0,      0.001862645033,      0.001862645033,      0.001862645033,    2.910383046e-005,    2.910383046e-005,    2.910383046e-005,0,0,0,0,0,0,0,0,0,0,0,0,0,0,0,0,0,0,0,5,0,0,5,0,1,1,1,4,0,0,0,1,0,0,0,0,1,1,0,0,0,1,0,2,0,0,0,0,0,                   0,0,0,0,0,0,
334,62,62,'0x81FF',26,312,'0xB2EE',         54416.09912,1899,54416,       0.08033077349,0,0,0,0,0,0,0,0,0,0,0,0,0,0,0,0,0,0,0,0,0,0,0,0,0,0,0,      0.001862645033,      0.001862645033,      0.001862645033,    2.910383046e-005,    2.910383046e-005,    2.910383046e-005,0,0,0,0,0,0,0,0,0,0,0,0,0,0,0,0,0,0,0,5,0,0,5,0,1,1,1,4,0,0,0,1,0,0,0,0,1,1,0,0,0,1,0,2,0,0,0,0,0,                   0,0,0,0,0,0,
338,63,63,'0x81FF',26,312,'0xA2EE',         54417.09912,1899,54416,       0.08033077349,0,0,0,0,0,0,0,0,0,0,0,0,0,0,0,0,0,0,0,0,0,0,0,0,0,0,0,      0.001862645033,      0.001862645033,      0.001862645033,    2.910383046e-005,    2.910383046e-005,    2.910383046e-005,0,0,0,0,0,0,0,0,0,0,0,0,0,0,0,0,0,0,0,5,0,0,5,0,1,1,1,4,0,0,0,1,0,0,0,0,1,1,0,0,0,1,0,2,0,0,0,0,0,                   0,0,0,0,0,0,
342,64,64,'0x81FF',26,312,'0xD578',         54418.09912,1899,54417,        0.1003307744,0,0,0,0,0,0,0,0,0,0,0,0,0,0,0,0,0,0,0,0,0,0,0,0,0,0,0,      0.001862645033,      0.001862645033,      0.001862645033,    2.910383046e-005,    2.910383046e-005,    2.910383046e-005,0,0,0,0,0,0,0,0,0,0,0,0,0,0,0,0,0,0,0,5,0,0,5,0,1,1,1,4,0,0,0,1,0,0,0,0,1,1,0,0,0,1,0,2,0,0,0,0,0,                   0,0,0,0,0,0,
346,65,65,'0x81FF',26,312,'0x805',         54419.09912,1899,54418,        0.1203307749,0,0,0,0,0,0,0,0,0,0,0,0,0,0,0,0,0,0,0,0,0,0,0,0,0,0,0,      0.001862645033,      0.001862645033,      0.001862645033,    2.910383046e-005,    2.910383046e-005,    2.910383046e-005,0,0,0,0,0,0,0,0,0,0,0,0,0,0,0,0,0,0,0,5,0,0,5,0,1,1,1,4,0,0,0,1,0,0,0,0,1,1,0,0,0,1,0,2,0,0,0,0,0,                   0,0,0,0,0,0,
350,66,66,'0x81FF',26,312,'0x3A93',         54420.09912,1899,54419,        0.1403307749,0,0,0,0,0,0,0,0,0,0,0,0,0,0,0,0,0,0,0,0,0,0,0,0,0,0,0,      0.001862645033,      0.001862645033,      0.001862645033,    2.910383046e-005,    2.910383046e-005,    2.910383046e-005,0,0,0,0,0,0,0,0,0,0,0,0,0,0,0,0,0,0,0,5,0,0,5,0,1,1,1,4,0,0,0,1,0,0,0,0,1,1,0,0,0,1,0,2,0,0,0,0,0,                   0,0,0,0,0,0,
354,67,67,'0x81FF',26,312,'0x6D21',         54421.09912,1899,54420,         0.160330775,0,0,0,0,0,0,0,0,0,0,0,0,0,0,0,0,0,0,0,0,0,0,0,0,0,0,0,      0.001862645033,      0.001862645033,      0.001862645033,    2.910383046e-005,    2.910383046e-005,    2.910383046e-005,0,0,0,0,0,0,0,0,0,0,0,0,0,0,0,0,0,0,0,5,0,0,5,0,1,1,1,4,0,0,0,1,0,0,0,0,1,1,0,0,0,1,0,2,0,0,0,0,0,                   0,0,0,0,0,0,
358,68,68,'0x81FF',26,312,'0x9FAD',         54422.09912,1899,54421,        0.1803307754,0,0,0,0,0,0,0,0,0,0,0,0,0,0,0,0,0,0,0,0,0,0,0,0,0,0,0,      0.001862645033,      0.001862645033,      0.001862645033,    2.910383046e-005,    2.910383046e-005,    2.910383046e-005,0,0,0,0,0,0,0,0,0,0,0,0,0,0,0,0,0,0,0,5,0,0,5,0,1,1,1,4,0,0,0,1,0,0,0,0,1,1,0,0,0,1,0,2,0,0,0,0,0,                   0,0,0,0,0,0,
362,69,69,'0x81FF',26,312,'0xD23D',         54423.09912,1899,54422,        0.2003307752,0,0,0,0,0,0,0,0,0,0,0,0,0,0,0,0,0,0,0,0,0,0,0,0,0,0,0,      0.001862645033,      0.001862645033,      0.001862645033,    2.910383046e-005,    2.910383046e-005,    2.910383046e-005,0,0,0,0,0,0,0,0,0,0,0,0,0,0,0,0,0,0,0,5,0,0,5,0,1,1,1,4,0,0,0,1,0,0,0,0,1,1,0,0,0,1,0,2,0,0,0,0,0,                   0,0,0,0,0,0,
366,70,70,'0x81FF',26,312,'0x4CC',         54424.09912,1899,54423,         0.220330775,0,0,0,0,0,0,0,0,0,0,0,0,0,0,0,0,0,0,0,0,0,0,0,0,0,0,0,      0.001862645033,      0.001862645033,      0.001862645033,    2.910383046e-005,    2.910383046e-005,    2.910383046e-005,0,0,0,0,0,0,0,0,0,0,0,0,0,0,0,0,0,0,0,5,0,0,5,0,1,1,1,4,0,0,0,1,0,0,0,0,1,1,0,0,0,1,0,2,0,0,0,0,0,                   0,0,0,0,0,0,
370,71,71,'0x81FF',26,312,'0x375A',         54425.09912,1899,54424,         0.240330775,0,0,0,0,0,0,0,0,0,0,0,0,0,0,0,0,0,0,0,0,0,0,0,0,0,0,0,      0.001862645033,      0.001862645033,      0.001862645033,    2.910383046e-005,    2.910383046e-005,    2.910383046e-005,0,0,0,0,0,0,0,0,0,0,0,0,0,0,0,0,0,0,0,5,0,0,5,0,1,1,1,4,0,0,0,1,0,0,0,0,1,1,0,0,0,1,0,2,0,0,0,0,0,                   0,0,0,0,0,0,
374,72,72,'0x81FF',26,312,'0x69E8',         54426.09912,1899,54425,        0.2603307751,0,0,0,0,0,0,0,0,0,0,0,0,0,0,0,0,0,0,0,0,0,0,0,0,0,0,0,      0.001862645033,      0.001862645033,      0.001862645033,    2.910383046e-005,    2.910383046e-005,    2.910383046e-005,0,0,0,0,0,0,0,0,0,0,0,0,0,0,0,0,0,0,0,5,0,0,5,0,1,1,1,4,0,0,0,1,0,0,0,0,1,1,0,0,0,1,0,2,0,0,0,0,0,                   0,0,0,0,0,0,
378,73,73,'0x81FF',26,312,'0x9C76',         54427.09912,1899,54426,        0.2803307753,0,0,0,0,0,0,0,0,0,0,0,0,0,0,0,0,0,0,0,0,0,0,0,0,0,0,0,      0.001862645033,      0.001862645033,      0.001862645033,    2.910383046e-005,    2.910383046e-005,    2.910383046e-005,0,0,0,0,0,0,0,0,0,0,0,0,0,0,0,0,0,0,0,5,0,0,5,0,1,1,1,4,0,0,0,1,0,0,0,0,1,1,0,0,0,1,0,2,0,0,0,0,0,                   0,0,0,0,0,0,
382,74,74,'0x81FF',26,312,'0xCF04',         54428.09912,1899,54427,        0.3003307753,0,0,0,0,0,0,0,0,0,0,0,0,0,0,0,0,0,0,0,0,0,0,0,0,0,0,0,      0.001862645033,      0.001862645033,      0.001862645033,    2.910383046e-005,    2.910383046e-005,    2.910383046e-005,0,0,0,0,0,0,0,0,0,0,0,0,0,0,0,0,0,0,0,5,0,0,5,0,1,1,1,4,0,0,0,1,0,0,0,0,1,1,0,0,0,1,0,2,0,0,0,0,0,                   0,0,0,0,0,0,
386,75,75,'0x81FF',26,312,'0x192',         54429.09912,1899,54428,        0.3203307753,0,0,0,0,0,0,0,0,0,0,0,0,0,0,0,0,0,0,0,0,0,0,0,0,0,0,0,      0.001862645033,      0.001862645033,      0.001862645033,    2.910383046e-005,    2.910383046e-005,    2.910383046e-005,0,0,0,0,0,0,0,0,0,0,0,0,0,0,0,0,0,0,0,5,0,0,5,0,1,1,1,4,0,0,0,1,0,0,0,0,1,1,0,0,0,1,0,2,0,0,0,0,0,                   0,0,0,0,0,0,
390,76,76,'0x81FF',26,312,'0x3421',         54430.09912,1899,54429,        0.3403307754,0,0,0,0,0,0,0,0,0,0,0,0,0,0,0,0,0,0,0,0,0,0,0,0,0,0,0,      0.001862645033,      0.001862645033,      0.001862645033,    2.910383046e-005,    2.910383046e-005,    2.910383046e-005,0,0,0,0,0,0,0,0,0,0,0,0,0,0,0,0,0,0,0,5,0,0,5,0,1,1,1,4,0,0,0,1,0,0,0,0,1,1,0,0,0,1,0,2,0,0,0,0,0,                   0,0,0,0,0,0,
394,77,77,'0x81FF',26,312,'0x66AF',         54431.09912,1899,54430,        0.3603307754,0,0,0,0,0,0,0,0,0,0,0,0,0,0,0,0,0,0,0,0,0,0,0,0,0,0,0,      0.001862645033,      0.001862645033,      0.001862645033,    2.910383046e-005,    2.910383046e-005,    2.910383046e-005,0,0,0,0,0,0,0,0,0,0,0,0,0,0,0,0,0,0,0,5,0,0,5,0,1,1,1,4,0,0,0,1,0,0,0,0,1,1,0,0,0,1,0,2,0,0,0,0,0,                   0,0,0,0,0,0,
398,78,78,'0x81FF',26,312,'0x993C',         54432.09912,1899,54431,        0.3803307754,0,0,0,0,0,0,0,0,0,0,0,0,0,0,0,0,0,0,0,0,0,0,0,0,0,0,0,      0.001862645033,      0.001862645033,      0.001862645033,    2.910383046e-005,    2.910383046e-005,    2.910383046e-005,0,0,0,0,0,0,0,0,0,0,0,0,0,0,0,0,0,0,0,5,0,0,5,0,1,1,1,4,0,0,0,1,0,0,0,0,1,1,0,0,0,1,0,2,0,0,0,0,0,                   0,0,0,0,0,0,
402,79,79,'0x81FF',26,312,'0xCBCA',         54433.09912,1899,54432,        0.4003307754,0,0,0,0,0,0,0,0,0,0,0,0,0,0,0,0,0,0,0,0,0,0,0,0,0,0,0,      0.001862645033,      0.001862645033,      0.001862645033,    2.910383046e-005,    2.910383046e-005,    2.910383046e-005,0,0,0,0,0,0,0,0,0,0,0,0,0,0,0,0,0,0,0,5,0,0,5,0,1,1,1,4,0,0,0,1,0,0,0,0,1,1,0,0,0,1,0,2,0,0,0,0,0,                   0,0,0,0,0,0,
406,80,80,'0x81FF',26,312,'0xFE59',         54434.09912,1899,54433,        0.4203307754,0,0,0,0,0,0,0,0,0,0,0,0,0,0,0,0,0,0,0,0,0,0,0,0,0,0,0,      0.001862645033,      0.001862645033,      0.001862645033,    2.910383046e-005,    2.910383046e-005,    2.910383046e-005,0,0,0,0,0,0,0,0,0,0,0,0,0,0,0,0,0,0,0,5,0,0,5,0,1,1,1,4,0,0,0,1,0,0,0,0,1,1,0,0,0,1,0,2,0,0,0,0,0,                   0,0,0,0,0,0,
410,81,81,'0x81FF',26,312,'0x30E6',         54435.09912,1899,54434,        0.4403307757,0,0,0,0,0,0,0,0,0,0,0,0,0,0,0,0,0,0,0,0,0,0,0,0,0,0,0,      0.001862645033,      0.001862645033,      0.001862645033,    2.910383046e-005,    2.910383046e-005,    2.910383046e-005,0,0,0,0,0,0,0,0,0,0,0,0,0,0,0,0,0,0,0,5,0,0,5,0,1,1,1,4,0,0,0,1,0,0,0,0,1,1,0,0,0,1,0,2,0,0,0,0,0,                   0,0,0,0,0,0,
414,82,82,'0x81FF',26,312,'0x6375',         54436.09912,1899,54435,        0.4603307755,0,0,0,0,0,0,0,0,0,0,0,0,0,0,0,0,0,0,0,0,0,0,0,0,0,0,0,      0.001862645033,      0.001862645033,      0.001862645033,    2.910383046e-005,    2.910383046e-005,    2.910383046e-005,0,0,0,0,0,0,0,0,0,0,0,0,0,0,0,0,0,0,0,5,0,0,5,0,1,1,1,4,0,0,0,1,0,0,0,0,1,1,0,0,0,1,0,2,0,0,0,0,0,                   0,0,0,0,0,0,
418,83,83,'0x81FF',26,312,'0x9604',         54437.09912,1899,54436,        0.4803307755,0,0,0,0,0,0,0,0,0,0,0,0,0,0,0,0,0,0,0,0,0,0,0,0,0,0,0,      0.001862645033,      0.001862645033,      0.001862645033,    2.910383046e-005,    2.910383046e-005,    2.910383046e-005,0,0,0,0,0,0,0,0,0,0,0,0,0,0,0,0,0,0,0,5,0,0,5,0,1,1,1,4,0,0,0,1,0,0,0,0,1,1,0,0,0,1,0,2,0,0,0,0,0,                   0,0,0,0,0,0,
422,84,84,'0x81FF',26,312,'0xC893',         54438.09912,1899,54437,        0.5003307753,0,0,0,0,0,0,0,0,0,0,0,0,0,0,0,0,0,0,0,0,0,0,0,0,0,0,0,      0.001862645033,      0.001862645033,      0.001862645033,    2.910383046e-005,    2.910383046e-005,    2.910383046e-005,0,0,0,0,0,0,0,0,0,0,0,0,0,0,0,0,0,0,0,5,0,0,5,0,1,1,1,4,0,0,0,1,0,0,0,0,1,1,0,0,0,1,0,2,0,0,0,0,0,                   0,0,0,0,0,0,
427,85,85,'0x81FF',26,312,'0xFB21',         54439.09912,1899,54438,        0.5203307753,0,0,0,0,0,0,0,0,0,0,0,0,0,0,0,0,0,0,0,0,0,0,0,0,0,0,0,      0.001862645033,      0.001862645033,      0.001862645033,    2.910383046e-005,    2.910383046e-005,    2.910383046e-005,0,0,0,0,0,0,0,0,0,0,0,0,0,0,0,0,0,0,0,5,0,0,5,0,1,1,1,4,0,0,0,1,0,0,0,0,1,1,0,0,0,1,0,2,0,0,0,0,0,                   0,0,0,0,0,0,
434,86,86,'0x81FF',26,312,'0x2DAF',         54440.09912,1899,54439,        0.5403307753,0,0,0,0,0,0,0,0,0,0,0,0,0,0,0,0,0,0,0,0,0,0,0,0,0,0,0,      0.001862645033,      0.001862645033,      0.001862645033,    2.910383046e-005,    2.910383046e-005,    2.910383046e-005,0,0,0,0,0,0,0,0,0,0,0,0,0,0,0,0,0,0,0,5,0,0,5,0,1,1,1,4,0,0,0,1,0,0,0,0,1,1,0,0,0,1,0,2,0,0,0,0,0,                   0,0,0,0,0,0,
440,87,87,'0x81FF',26,312,'0x603E',         54441.09912,1899,54440,        0.5603307753,0,0,0,0,0,0,0,0,0,0,0,0,0,0,0,0,0,0,0,0,0,0,0,0,0,0,0,      0.001862645033,      0.001862645033,      0.001862645033,    2.910383046e-005,    2.910383046e-005,    2.910383046e-005,0,0,0,0,0,0,0,0,0,0,0,0,0,0,0,0,0,0,0,5,0,0,5,0,1,1,1,4,0,0,0,1,0,0,0,0,1,1,0,0,0,1,0,2,0,0,0,0,0,                   0,0,0,0,0,0,
446,88,88,'0x81FF',26,312,'0x92CC',         54442.09912,1899,54441,        0.5803307754,0,0,0,0,0,0,0,0,0,0,0,0,0,0,0,0,0,0,0,0,0,0,0,0,0,0,0,      0.001862645033,      0.001862645033,      0.001862645033,    2.910383046e-005,    2.910383046e-005,    2.910383046e-005,0,0,0,0,0,0,0,0,0,0,0,0,0,0,0,0,0,0,0,5,0,0,5,0,1,1,1,4,0,0,0,1,0,0,0,0,1,1,0,0,0,1,0,2,0,0,0,0,0,                   0,0,0,0,0,0,
452,89,89,'0x81FF',26,312,'0xC55B',         54443.09912,1899,54442,        0.6003307751,0,0,0,0,0,0,0,0,0,0,0,0,0,0,0,0,0,0,0,0,0,0,0,0,0,0,0,      0.001862645033,      0.001862645033,      0.001862645033,    2.910383046e-005,    2.910383046e-005,    2.910383046e-005,0,0,0,0,0,0,0,0,0,0,0,0,0,0,0,0,0,0,0,5,0,0,5,0,1,1,1,4,0,0,0,1,0,0,0,0,1,1,0,0,0,1,0,2,0,0,0,0,0,                   0,0,0,0,0,0,
457,90,90,'0x81FF',26,312,'0xF7EA',         54444.09912,1899,54443,        0.6203307752,0,0,0,0,0,0,0,0,0,0,0,0,0,0,0,0,0,0,0,0,0,0,0,0,0,0,0,      0.001862645033,      0.001862645033,      0.001862645033,    2.910383046e-005,    2.910383046e-005,    2.910383046e-005,0,0,0,0,0,0,0,0,0,0,0,0,0,0,0,0,0,0,0,5,0,0,5,0,1,1,1,4,0,0,0,1,0,0,0,0,1,1,0,0,0,1,0,2,0,0,0,0,0,                   0,0,0,0,0,0,
463,91,91,'0x81FF',26,312,'0x2A78',         54445.09912,1899,54444,        0.6403307752,0,0,0,0,0,0,0,0,0,0,0,0,0,0,0,0,0,0,0,0,0,0,0,0,0,0,0,      0.001862645033,      0.001862645033,      0.001862645033,    2.910383046e-005,    2.910383046e-005,    2.910383046e-005,0,0,0,0,0,0,0,0,0,0,0,0,0,0,0,0,0,0,0,5,0,0,5,0,1,1,1,4,0,0,0,1,0,0,0,0,1,1,0,0,0,1,0,2,0,0,0,0,0,                   0,0,0,0,0,0,
469,92,92,'0x81FF',26,312,'0x5D06',         54446.09912,1899,54445,        0.6603307752,0,0,0,0,0,0,0,0,0,0,0,0,0,0,0,0,0,0,0,0,0,0,0,0,0,0,0,      0.001862645033,      0.001862645033,      0.001862645033,    2.910383046e-005,    2.910383046e-005,    2.910383046e-005,0,0,0,0,0,0,0,0,0,0,0,0,0,0,0,0,0,0,0,5,0,0,5,0,1,1,1,4,0,0,0,1,0,0,0,0,1,1,0,0,0,1,0,2,0,0,0,0,0,                   0,0,0,0,0,0,
474,93,93,'0x81FF',26,312,'0x8F94',         54447.09912,1899,54446,        0.6803307752,0,0,0,0,0,0,0,0,0,0,0,0,0,0,0,0,0,0,0,0,0,0,0,0,0,0,0,      0.001862645033,      0.001862645033,      0.001862645033,    2.910383046e-005,    2.910383046e-005,    2.910383046e-005,0,0,0,0,0,0,0,0,0,0,0,0,0,0,0,0,0,0,0,5,0,0,5,0,1,1,1,4,0,0,0,1,0,0,0,0,1,1,0,0,0,1,0,2,0,0,0,0,0,                   0,0,0,0,0,0,
480,94,94,'0x81FF',26,312,'0xC221',         54448.09912,1899,54447,        0.7003307755,0,0,0,0,0,0,0,0,0,0,0,0,0,0,0,0,0,0,0,0,0,0,0,0,0,0,0,      0.001862645033,      0.001862645033,      0.001862645033,    2.910383046e-005,    2.910383046e-005,    2.910383046e-005,0,0,0,0,0,0,0,0,0,0,0,0,0,0,0,0,0,0,0,5,0,0,5,0,1,1,1,4,0,0,0,1,0,0,0,0,1,1,0,0,0,1,0,2,0,0,0,0,0,                   0,0,0,0,0,0,
486,95,95,'0x81FF',26,312,'0xF4AE',         54449.09912,1899,54448,        0.7203307757,0,0,0,0,0,0,0,0,0,0,0,0,0,0,0,0,0,0,0,0,0,0,0,0,0,0,0,      0.001862645033,      0.001862645033,      0.001862645033,    2.910383046e-005,    2.910383046e-005,    2.910383046e-005,0,0,0,0,0,0,0,0,0,0,0,0,0,0,0,0,0,0,0,5,0,0,5,0,1,1,1,4,0,0,0,1,0,0,0,0,1,1,0,0,0,1,0,2,0,0,0,0,0,                   0,0,0,0,0,0,
491,96,96,'0x81FF',26,312,'0x273C',         54450.09912,1899,54449,        0.7403307757,0,0,0,0,0,0,0,0,0,0,0,0,0,0,0,0,0,0,0,0,0,0,0,0,0,0,0,      0.001862645033,      0.001862645033,      0.001862645033,    2.910383046e-005,    2.910383046e-005,    2.910383046e-005,0,0,0,0,0,0,0,0,0,0,0,0,0,0,0,0,0,0,0,5,0,0,5,0,1,1,1,4,0,0,0,1,0,0,0,0,1,1,0,0,0,1,0,2,0,0,0,0,0,                   0,0,0,0,0,0,
497,97,97,'0x81FF',26,312,'0x59CB',         54451.09912,1899,54450,        0.7603307755,0,0,0,0,0,0,0,0,0,0,0,0,0,0,0,0,0,0,0,0,0,0,0,0,0,0,0,      0.001862645033,      0.001862645033,      0.001862645033,    2.910383046e-005,    2.910383046e-005,    2.910383046e-005,0,0,0,0,0,0,0,0,0,0,0,0,0,0,0,0,0,0,0,5,0,0,5,0,1,1,1,4,0,0,0,1,0,0,0,0,1,1,0,0,0,1,0,2,0,0,0,0,0,                   0,0,0,0,0,0,
503,98,98,'0x81FF',26,312,'0x8C5B',         54452.09912,1899,54451,        0.7803307753,0,0,0,0,0,0,0,0,0,0,0,0,0,0,0,0,0,0,0,0,0,0,0,0,0,0,0,      0.001862645033,      0.001862645033,      0.001862645033,    2.910383046e-005,    2.910383046e-005,    2.910383046e-005,0,0,0,0,0,0,0,0,0,0,0,0,0,0,0,0,0,0,0,5,0,0,5,0,1,1,1,4,0,0,0,1,0,0,0,0,1,1,0,0,0,1,0,2,0,0,0,0,0,                   0,0,0,0,0,0,
508,99,99,'0x81FF',26,312,'0xBEE8',         54453.09912,1899,54452,        0.8003307756,0,0,0,0,0,0,0,0,0,0,0,0,0,0,0,0,0,0,0,0,0,0,0,0,0,0,0,      0.001862645033,      0.001862645033,      0.001862645033,    2.910383046e-005,    2.910383046e-005,    2.910383046e-005,0,0,0,0,0,0,0,0,0,0,0,0,0,0,0,0,0,0,0,5,0,0,5,0,1,1,1,4,0,0,0,1,0,0,0,0,1,1,0,0,0,1,0,2,0,0,0,0,0,                   0,0,0,0,0,0,
514,100,100,'0x81FF',26,312,'0xF177',         54454.09912,1899,54453,        0.8203307753,0,0,0,0,0,0,0,0,0,0,0,0,0,0,0,0,0,0,0,0,0,0,0,0,0,0,0,      0.001862645033,      0.001862645033,      0.001862645033,    2.910383046e-005,    2.910383046e-005,    2.910383046e-005,0,0,0,0,0,0,0,0,0,0,0,0,0,0,0,0,0,0,0,5,0,0,5,0,1,1,1,4,0,0,0,1,0,0,0,0,1,1,0,0,0,1,0,2,0,0,0,0,0,                   0,0,0,0,0,0,
520,101,101,'0x81FF',26,312,'0x2406',         54455.09912,1899,54454,        0.8403307754,0,0,0,0,0,0,0,0,0,0,0,0,0,0,0,0,0,0,0,0,0,0,0,0,0,0,0,      0.001862645033,      0.001862645033,      0.001862645033,    2.910383046e-005,    2.910383046e-005,    2.910383046e-005,0,0,0,0,0,0,0,0,0,0,0,0,0,0,0,0,0,0,0,5,0,0,5,0,1,1,1,4,0,0,0,1,0,0,0,0,1,1,0,0,0,1,0,2,0,0,0,0,0,                   0,0,0,0,0,0,
525,102,102,'0x81FF',26,312,'0x5694',         54456.09912,1899,54455,        0.8603307754,0,0,0,0,0,0,0,0,0,0,0,0,0,0,0,0,0,0,0,0,0,0,0,0,0,0,0,      0.001862645033,      0.001862645033,      0.001862645033,    2.910383046e-005,    2.910383046e-005,    2.910383046e-005,0,0,0,0,0,0,0,0,0,0,0,0,0,0,0,0,0,0,0,5,0,0,5,0,1,1,1,4,0,0,0,1,0,0,0,0,1,1,0,0,0,1,0,2,0,0,0,0,0,                   0,0,0,0,0,0,
531,103,103,'0x81FF',26,312,'0x8922',         54457.09912,1899,54456,        0.8803307754,0,0,0,0,0,0,0,0,0,0,0,0,0,0,0,0,0,0,0,0,0,0,0,0,0,0,0,      0.001862645033,      0.001862645033,      0.001862645033,    2.910383046e-005,    2.910383046e-005,    2.910383046e-005,0,0,0,0,0,0,0,0,0,0,0,0,0,0,0,0,0,0,0,5,0,0,5,0,1,1,1,4,0,0,0,1,0,0,0,0,1,1,0,0,0,1,0,2,0,0,0,0,0,                   0,0,0,0,0,0,
537,104,104,'0x81FF',26,312,'0xBBB0',         54458.09912,1899,54457,        0.9003307754,0,0,0,0,0,0,0,0,0,0,0,0,0,0,0,0,0,0,0,0,0,0,0,0,0,0,0,      0.001862645033,      0.001862645033,      0.001862645033,    2.910383046e-005,    2.910383046e-005,    2.910383046e-005,0,0,0,0,0,0,0,0,0,0,0,0,0,0,0,0,0,0,0,5,0,0,5,0,1,1,1,4,0,0,0,1,0,0,0,0,1,1,0,0,0,1,0,2,0,0,0,0,0,                   0,0,0,0,0,0,
542,105,105,'0x81FF',26,312,'0xEE3F',         54459.09912,1899,54458,        0.9203307754,0,0,0,0,0,0,0,0,0,0,0,0,0,0,0,0,0,0,0,0,0,0,0,0,0,0,0,      0.001862645033,      0.001862645033,      0.001862645033,    2.910383046e-005,    2.910383046e-005,    2.910383046e-005,0,0,0,0,0,0,0,0,0,0,0,0,0,0,0,0,0,0,0,5,0,0,5,0,1,1,1,4,0,0,0,1,0,0,0,0,1,1,0,0,0,1,0,2,0,0,0,0,0,                   0,0,0,0,0,0,
548,106,106,'0x81FF',26,312,'0x20CD',         54460.09912,1899,54459,        0.9403307755,0,0,0,0,0,0,0,0,0,0,0,0,0,0,0,0,0,0,0,0,0,0,0,0,0,0,0,      0.001862645033,      0.001862645033,      0.001862645033,    2.910383046e-005,    2.910383046e-005,    2.910383046e-005,0,0,0,0,0,0,0,0,0,0,0,0,0,0,0,0,0,0,0,5,0,0,5,0,1,1,1,4,0,0,0,1,0,0,0,0,1,1,0,0,0,1,0,2,0,0,0,0,0,                   0,0,0,0,0,0,
554,107,107,'0x81FF',26,312,'0x535B',         54461.09912,1899,54460,        0.9603307755,0,0,0,0,0,0,0,0,0,0,0,0,0,0,0,0,0,0,0,0,0,0,0,0,0,0,0,      0.001862645033,      0.001862645033,      0.001862645033,    2.910383046e-005,    2.910383046e-005,    2.910383046e-005,0,0,0,0,0,0,0,0,0,0,0,0,0,0,0,0,0,0,0,5,0,0,5,0,1,1,1,4,0,0,0,1,0,0,0,0,1,1,0,0,0,1,0,2,0,0,0,0,0,                   0,0,0,0,0,0,
559,108,108,'0x81FF',26,312,'0x85EA',         54462.09912,1899,54461,        0.9803307755,0,0,0,0,0,0,0,0,0,0,0,0,0,0,0,0,0,0,0,0,0,0,0,0,0,0,0,      0.001862645033,      0.001862645033,      0.001862645033,    2.910383046e-005,    2.910383046e-005,    2.910383046e-005,0,0,0,0,0,0,0,0,0,0,0,0,0,0,0,0,0,0,0,5,0,0,5,0,1,1,1,4,0,0,0,1,0,0,0,0,1,1,0,0,0,1,0,2,0,0,0,0,0,                   0,0,0,0,0,0,
565,109,109,'0x81FF',26,312,'0xB876',         54463.09912,1899,54463,     0.0003307757434,0,0,0,0,0,0,0,0,0,0,0,0,0,0,0,0,0,0,0,0,0,0,0,0,0,0,0,      0.001862645033,      0.001862645033,      0.001862645033,    2.910383046e-005,    2.910383046e-005,    2.910383046e-005,0,0,0,0,0,0,0,0,0,0,0,0,0,0,0,0,0,0,0,5,0,0,5,0,1,1,1,4,0,0,0,1,0,0,0,0,1,1,0,0,0,1,0,2,0,0,0,0,0,                   0,0,0,0,0,0,
571,110,110,'0x81FF',26,312,'0xEB04',         54464.09912,1899,54464,       0.02033077553,0,0,0,0,0,0,0,0,0,0,0,0,0,0,0,0,0,0,0,0,0,0,0,0,0,0,0,      0.001862645033,      0.001862645033,      0.001862645033,    2.910383046e-005,    2.910383046e-005,    2.910383046e-005,0,0,0,0,0,0,0,0,0,0,0,0,0,0,0,0,0,0,0,5,0,0,5,0,1,1,1,4,0,0,0,1,0,0,0,0,1,1,0,0,0,1,0,2,0,0,0,0,0,                   0,0,0,0,0,0,
576,111,111,'0x81FF',26,312,'0x1D92',         54465.09912,1899,54465,       0.04033077555,0,0,0,0,0,0,0,0,0,0,0,0,0,0,0,0,0,0,0,0,0,0,0,0,0,0,0,      0.001862645033,      0.001862645033,      0.001862645033,    2.910383046e-005,    2.910383046e-005,    2.910383046e-005,0,0,0,0,0,0,0,0,0,0,0,0,0,0,0,0,0,0,0,5,0,0,5,0,1,1,1,4,0,0,0,1,0,0,0,0,1,1,0,0,0,1,0,2,0,0,0,0,0,                   0,0,0,0,0,0,
582,112,112,'0x81FF',26,312,'0x5021',         54466.09912,1899,54466,       0.06033077557,0,0,0,0,0,0,0,0,0,0,0,0,0,0,0,0,0,0,0,0,0,0,0,0,0,0,0,      0.001862645033,      0.001862645033,      0.001862645033,    2.910383046e-005,    2.910383046e-005,    2.910383046e-005,0,0,0,0,0,0,0,0,0,0,0,0,0,0,0,0,0,0,0,5,0,0,5,0,1,1,1,4,0,0,0,1,0,0,0,0,1,1,0,0,0,1,0,2,0,0,0,0,0,                   0,0,0,0,0,0,
588,113,113,'0x81FF',26,312,'0x82AF',         54467.09912,1899,54467,       0.08033077559,0,0,0,0,0,0,0,0,0,0,0,0,0,0,0,0,0,0,0,0,0,0,0,0,0,0,0,      0.001862645033,      0.001862645033,      0.001862645033,    2.910383046e-005,    2.910383046e-005,    2.910383046e-005,0,0,0,0,0,0,0,0,0,0,0,0,0,0,0,0,0,0,0,5,0,0,5,0,1,1,1,4,0,0,0,1,0,0,0,0,1,1,0,0,0,1,0,2,0,0,0,0,0,                   0,0,0,0,0,0,
593,114,114,'0x81FF',26,312,'0x72AF',         54468.09912,1899,54467,       0.08033077559,0,0,0,0,0,0,0,0,0,0,0,0,0,0,0,0,0,0,0,0,0,0,0,0,0,0,0,      0.001862645033,      0.001862645033,      0.001862645033,    2.910383046e-005,    2.910383046e-005,    2.910383046e-005,0,0,0,0,0,0,0,0,0,0,0,0,0,0,0,0,0,0,0,5,0,0,5,0,1,1,1,4,0,0,0,1,0,0,0,0,1,1,0,0,0,1,0,2,0,0,0,0,0,                   0,0,0,0,0,0,
599,115,115,'0x81FF',26,312,'0xA53D',         54469.09912,1899,54468,        0.1003307756,0,0,0,0,0,0,0,0,0,0,0,0,0,0,0,0,0,0,0,0,0,0,0,0,0,0,0,      0.001862645033,      0.001862645033,      0.001862645033,    2.910383046e-005,    2.910383046e-005,    2.910383046e-005,0,0,0,0,0,0,0,0,0,0,0,0,0,0,0,0,0,0,0,5,0,0,5,0,1,1,1,4,0,0,0,1,0,0,0,0,1,1,0,0,0,1,0,2,0,0,0,0,0,                   0,0,0,0,0,0,
605,116,116,'0x81FF',26,312,'0xD7C7',         54470.09912,1899,54469,        0.1203307768,0,0,0,0,0,0,0,0,0,0,0,0,0,0,0,0,0,0,0,0,0,0,0,0,0,0,0,      0.001862645033,      0.001862645033,      0.001862645033,    2.910383046e-005,    2.910383046e-005,    2.910383046e-005,0,0,0,0,0,0,0,0,0,0,0,0,0,0,0,0,0,0,0,5,0,0,5,0,1,1,1,4,0,0,0,1,0,0,0,0,1,1,0,0,0,1,0,2,0,0,0,0,0,                   0,0,0,0,0,0,
610,117,117,'0x81FF',26,312,'0xA51',         54471.09912,1899,54470,        0.1403307777,0,0,0,0,0,0,0,0,0,0,0,0,0,0,0,0,0,0,0,0,0,0,0,0,0,0,0,      0.001862645033,      0.001862645033,      0.001862645033,    2.910383046e-005,    2.910383046e-005,    2.910383046e-005,0,0,0,0,0,0,0,0,0,0,0,0,0,0,0,0,0,0,0,5,0,0,5,0,1,1,1,4,0,0,0,1,0,0,0,0,1,1,0,0,0,1,0,2,0,0,0,0,0,                   0,0,0,0,0,0,
616,118,118,'0x81FF',26,312,'0x3CDD',         54472.09912,1899,54471,        0.1603307782,0,0,0,0,0,0,0,0,0,0,0,0,0,0,0,0,0,0,0,0,0,0,0,0,0,0,0,      0.001862645033,      0.001862645033,      0.001862645033,    2.910383046e-005,    2.910383046e-005,    2.910383046e-005,0,0,0,0,0,0,0,0,0,0,0,0,0,0,0,0,0,0,0,5,0,0,5,0,1,1,1,4,0,0,0,1,0,0,0,0,1,1,0,0,0,1,0,2,0,0,0,0,0,                   0,0,0,0,0,0,
622,119,119,'0x81FF',26,312,'0x6F69',         54473.09912,1899,54472,        0.1803307787,0,0,0,0,0,0,0,0,0,0,0,0,0,0,0,0,0,0,0,0,0,0,0,0,0,0,0,      0.001862645033,      0.001862645033,      0.001862645033,    2.910383046e-005,    2.910383046e-005,    2.910383046e-005,0,0,0,0,0,0,0,0,0,0,0,0,0,0,0,0,0,0,0,5,0,0,5,0,1,1,1,4,0,0,0,1,0,0,0,0,1,1,0,0,0,1,0,2,0,0,0,0,0,                   0,0,0,0,0,0,
627,120,120,'0x81FF',26,312,'0xA1F6',         54474.09912,1899,54473,        0.2003307792,0,0,0,0,0,0,0,0,0,0,0,0,0,0,0,0,0,0,0,0,0,0,0,0,0,0,0,      0.001862645033,      0.001862645033,      0.001862645033,    2.910383046e-005,    2.910383046e-005,    2.910383046e-005,0,0,0,0,0,0,0,0,0,0,0,0,0,0,0,0,0,0,0,5,0,0,5,0,1,1,1,4,0,0,0,1,0,0,0,0,1,1,0,0,0,1,0,2,0,0,0,0,0,                   0,0,0,0,0,0,
633,121,121,'0x81FF',26,312,'0xD483',         54475.09912,1899,54474,        0.2203307794,0,0,0,0,0,0,0,0,0,0,0,0,0,0,0,0,0,0,0,0,0,0,0,0,0,0,0,      0.001862645033,      0.001862645033,      0.001862645033,    2.910383046e-005,    2.910383046e-005,    2.910383046e-005,0,0,0,0,0,0,0,0,0,0,0,0,0,0,0,0,0,0,0,5,0,0,5,0,1,1,1,4,0,0,0,1,0,0,0,0,1,1,0,0,0,1,0,2,0,0,0,0,0,                   0,0,0,0,0,0,
639,122,122,'0x81FF',26,312,'0x710',         54476.09912,1899,54475,        0.2403307797,0,0,0,0,0,0,0,0,0,0,0,0,0,0,0,0,0,0,0,0,0,0,0,0,0,0,0,      0.001862645033,      0.001862645033,      0.001862645033,    2.910383046e-005,    2.910383046e-005,    2.910383046e-005,0,0,0,0,0,0,0,0,0,0,0,0,0,0,0,0,0,0,0,5,0,0,5,0,1,1,1,4,0,0,0,1,0,0,0,0,1,1,0,0,0,1,0,2,0,0,0,0,0,                   0,0,0,0,0,0,
644,123,123,'0x81FF',26,312,'0x399E',         54477.09912,1899,54476,        0.2603307797,0,0,0,0,0,0,0,0,0,0,0,0,0,0,0,0,0,0,0,0,0,0,0,0,0,0,0,      0.001862645033,      0.001862645033,      0.001862645033,    2.910383046e-005,    2.910383046e-005,    2.910383046e-005,0,0,0,0,0,0,0,0,0,0,0,0,0,0,0,0,0,0,0,5,0,0,5,0,1,1,1,4,0,0,0,1,0,0,0,0,1,1,0,0,0,1,0,2,0,0,0,0,0,                   0,0,0,0,0,0,
650,124,124,'0x81FF',26,312,'0x6C2C',         54478.09912,1899,54477,          0.28033078,0,0,0,0,0,0,0,0,0,0,0,0,0,0,0,0,0,0,0,0,0,0,0,0,0,0,0,      0.001862645033,      0.001862645033,      0.001862645033,    2.910383046e-005,    2.910383046e-005,    2.910383046e-005,0,0,0,0,0,0,0,0,0,0,0,0,0,0,0,0,0,0,0,5,0,0,5,0,1,1,1,4,0,0,0,1,0,0,0,0,1,1,0,0,0,1,0,2,0,0,0,0,0,                   0,0,0,0,0,0,
656,125,125,'0x81FF',26,312,'0x9EBA',         54479.09912,1899,54478,          0.30033078,0,0,0,0,0,0,0,0,0,0,0,0,0,0,0,0,0,0,0,0,0,0,0,0,0,0,0,      0.001862645033,      0.001862645033,      0.001862645033,    2.910383046e-005,    2.910383046e-005,    2.910383046e-005,0,0,0,0,0,0,0,0,0,0,0,0,0,0,0,0,0,0,0,5,0,0,5,0,1,1,1,4,0,0,0,1,0,0,0,0,1,1,0,0,0,1,0,2,0,0,0,0,0,                   0,0,0,0,0,0,
661,126,126,'0x81FF',26,312,'0xD148',         54480.09912,1899,54479,        0.3203307798,0,0,0,0,0,0,0,0,0,0,0,0,0,0,0,0,0,0,0,0,0,0,0,0,0,0,0,      0.001862645033,      0.001862645033,      0.001862645033,    2.910383046e-005,    2.910383046e-005,    2.910383046e-005,0,0,0,0,0,0,0,0,0,0,0,0,0,0,0,0,0,0,0,5,0,0,5,0,1,1,1,4,0,0,0,1,0,0,0,0,1,1,0,0,0,1,0,2,0,0,0,0,0,                   0,0,0,0,0,0,
667,127,127,'0x81FF',26,312,'0x3D7',         54481.09912,1899,54480,        0.3403307798,0,0,0,0,0,0,0,0,0,0,0,0,0,0,0,0,0,0,0,0,0,0,0,0,0,0,0,      0.001862645033,      0.001862645033,      0.001862645033,    2.910383046e-005,    2.910383046e-005,    2.910383046e-005,0,0,0,0,0,0,0,0,0,0,0,0,0,0,0,0,0,0,0,5,0,0,5,0,1,1,1,4,0,0,0,1,0,0,0,0,1,1,0,0,0,1,0,2,0,0,0,0,0,                   0,0,0,0,0,0,
673,128,128,'0x81FF',26,312,'0x3664',         54482.09912,1899,54481,          0.36033078,0,0,0,0,0,0,0,0,0,0,0,0,0,0,0,0,0,0,0,0,0,0,0,0,0,0,0,      0.001862645033,      0.001862645033,      0.001862645033,    2.910383046e-005,    2.910383046e-005,    2.910383046e-005,0,0,0,0,0,0,0,0,0,0,0,0,0,0,0,0,0,0,0,5,0,0,5,0,1,1,1,4,0,0,0,1,0,0,0,0,1,1,0,0,0,1,0,2,0,0,0,0,0,                   0,0,0,0,0,0,
678,129,129,'0x81FF',26,312,'0x68F3',         54483.09912,1899,54482,        0.3803307798,0,0,0,0,0,0,0,0,0,0,0,0,0,0,0,0,0,0,0,0,0,0,0,0,0,0,0,      0.001862645033,      0.001862645033,      0.001862645033,    2.910383046e-005,    2.910383046e-005,    2.910383046e-005,0,0,0,0,0,0,0,0,0,0,0,0,0,0,0,0,0,0,0,5,0,0,5,0,1,1,1,4,0,0,0,1,0,0,0,0,1,1,0,0,0,1,0,2,0,0,0,0,0,                   0,0,0,0,0,0,
684,130,130,'0x81FF',26,312,'0x9B81',         54484.09912,1899,54483,        0.4003307798,0,0,0,0,0,0,0,0,0,0,0,0,0,0,0,0,0,0,0,0,0,0,0,0,0,0,0,      0.001862645033,      0.001862645033,      0.001862645033,    2.910383046e-005,    2.910383046e-005,    2.910383046e-005,0,0,0,0,0,0,0,0,0,0,0,0,0,0,0,0,0,0,0,5,0,0,5,0,1,1,1,4,0,0,0,1,0,0,0,0,1,1,0,0,0,1,0,2,0,0,0,0,0,                   0,0,0,0,0,0,
690,131,131,'0x81FF',26,312,'0xCE0F',         54485.09912,1899,54484,        0.4203307801,0,0,0,0,0,0,0,0,0,0,0,0,0,0,0,0,0,0,0,0,0,0,0,0,0,0,0,      0.001862645033,      0.001862645033,      0.001862645033,    2.910383046e-005,    2.910383046e-005,    2.910383046e-005,0,0,0,0,0,0,0,0,0,0,0,0,0,0,0,0,0,0,0,5,0,0,5,0,1,1,1,4,0,0,0,1,0,0,0,0,1,1,0,0,0,1,0,2,0,0,0,0,0,                   0,0,0,0,0,0,
695,132,132,'0x81FF',26,312,'0x9E',         54486.09912,1899,54485,        0.4403307799,0,0,0,0,0,0,0,0,0,0,0,0,0,0,0,0,0,0,0,0,0,0,0,0,0,0,0,      0.001862645033,      0.001862645033,      0.001862645033,    2.910383046e-005,    2.910383046e-005,    2.910383046e-005,0,0,0,0,0,0,0,0,0,0,0,0,0,0,0,0,0,0,0,5,0,0,5,0,1,1,1,4,0,0,0,1,0,0,0,0,1,1,0,0,0,1,0,2,0,0,0,0,0,                   0,0,0,0,0,0,
701,133,133,'0x81FF',26,312,'0x332C',         54487.09912,1899,54486,        0.4603307799,0,0,0,0,0,0,0,0,0,0,0,0,0,0,0,0,0,0,0,0,0,0,0,0,0,0,0,      0.001862645033,      0.001862645033,      0.001862645033,    2.910383046e-005,    2.910383046e-005,    2.910383046e-005,0,0,0,0,0,0,0,0,0,0,0,0,0,0,0,0,0,0,0,5,0,0,5,0,1,1,1,4,0,0,0,1,0,0,0,0,1,1,0,0,0,1,0,2,0,0,0,0,0,                   0,0,0,0,0,0,
707,134,134,'0x81FF',26,312,'0x65BB',         54488.09912,1899,54487,        0.4803307799,0,0,0,0,0,0,0,0,0,0,0,0,0,0,0,0,0,0,0,0,0,0,0,0,0,0,0,      0.001862645033,      0.001862645033,      0.001862645033,    2.910383046e-005,    2.910383046e-005,    2.910383046e-005,0,0,0,0,0,0,0,0,0,0,0,0,0,0,0,0,0,0,0,5,0,0,5,0,1,1,1,4,0,0,0,1,0,0,0,0,1,1,0,0,0,1,0,2,0,0,0,0,0,                   0,0,0,0,0,0,
712,135,135,'0x81FF',26,312,'0x9849',         54489.09912,1899,54488,        0.5003307799,0,0,0,0,0,0,0,0,0,0,0,0,0,0,0,0,0,0,0,0,0,0,0,0,0,0,0,      0.001862645033,      0.001862645033,      0.001862645033,    2.910383046e-005,    2.910383046e-005,    2.910383046e-005,0,0,0,0,0,0,0,0,0,0,0,0,0,0,0,0,0,0,0,5,0,0,5,0,1,1,1,4,0,0,0,1,0,0,0,0,1,1,0,0,0,1,0,2,0,0,0,0,0,                   0,0,0,0,0,0,
718,136,136,'0x81FF',26,312,'0xCAD7',         54490.09912,1899,54489,          0.52033078,0,0,0,0,0,0,0,0,0,0,0,0,0,0,0,0,0,0,0,0,0,0,0,0,0,0,0,      0.001862645033,      0.001862645033,      0.001862645033,    2.910383046e-005,    2.910383046e-005,    2.910383046e-005,0,0,0,0,0,0,0,0,0,0,0,0,0,0,0,0,0,0,0,5,0,0,5,0,1,1,1,4,0,0,0,1,0,0,0,0,1,1,0,0,0,1,0,2,0,0,0,0,0,                   0,0,0,0,0,0,
724,137,137,'0x81FF',26,312,'0xFD64',         54491.09912,1899,54490,        0.5403307802,0,0,0,0,0,0,0,0,0,0,0,0,0,0,0,0,0,0,0,0,0,0,0,0,0,0,0,      0.001862645033,      0.001862645033,      0.001862645033,    2.910383046e-005,    2.910383046e-005,    2.910383046e-005,0,0,0,0,0,0,0,0,0,0,0,0,0,0,0,0,0,0,0,5,0,0,5,0,1,1,1,4,0,0,0,1,0,0,0,0,1,1,0,0,0,1,0,2,0,0,0,0,0,                   0,0,0,0,0,0,
729,138,138,'0x81FF',26,312,'0x2FF3',         54492.09912,1899,54491,        0.5603307802,0,0,0,0,0,0,0,0,0,0,0,0,0,0,0,0,0,0,0,0,0,0,0,0,0,0,0,      0.001862645033,      0.001862645033,      0.001862645033,    2.910383046e-005,    2.910383046e-005,    2.910383046e-005,0,0,0,0,0,0,0,0,0,0,0,0,0,0,0,0,0,0,0,5,0,0,5,0,1,1,1,4,0,0,0,1,0,0,0,0,1,1,0,0,0,1,0,2,0,0,0,0,0,                   0,0,0,0,0,0,
735,139,139,'0x81FF',26,312,'0x6281',         54493.09912,1899,54492,        0.5803307802,0,0,0,0,0,0,0,0,0,0,0,0,0,0,0,0,0,0,0,0,0,0,0,0,0,0,0,      0.001862645033,      0.001862645033,      0.001862645033,    2.910383046e-005,    2.910383046e-005,    2.910383046e-005,0,0,0,0,0,0,0,0,0,0,0,0,0,0,0,0,0,0,0,5,0,0,5,0,1,1,1,4,0,0,0,1,0,0,0,0,1,1,0,0,0,1,0,2,0,0,0,0,0,                   0,0,0,0,0,0,
741,140,140,'0x81FF',26,312,'0x9510',         54494.09912,1899,54493,          0.60033078,0,0,0,0,0,0,0,0,0,0,0,0,0,0,0,0,0,0,0,0,0,0,0,0,0,0,0,      0.001862645033,      0.001862645033,      0.001862645033,    2.910383046e-005,    2.910383046e-005,    2.910383046e-005,0,0,0,0,0,0,0,0,0,0,0,0,0,0,0,0,0,0,0,5,0,0,5,0,1,1,1,4,0,0,0,1,0,0,0,0,1,1,0,0,0,1,0,2,0,0,0,0,0,                   0,0,0,0,0,0,
746,141,141,'0x81FF',26,312,'0xC79F',         54495.09912,1899,54494,          0.62033078,0,0,0,0,0,0,0,0,0,0,0,0,0,0,0,0,0,0,0,0,0,0,0,0,0,0,0,      0.001862645033,      0.001862645033,      0.001862645033,    2.910383046e-005,    2.910383046e-005,    2.910383046e-005,0,0,0,0,0,0,0,0,0,0,0,0,0,0,0,0,0,0,0,5,0,0,5,0,1,1,1,4,0,0,0,1,0,0,0,0,1,1,0,0,0,1,0,2,0,0,0,0,0,                   0,0,0,0,0,0,
752,142,142,'0x81FF',26,312,'0xFA2C',         54496.09912,1899,54495,        0.6403307801,0,0,0,0,0,0,0,0,0,0,0,0,0,0,0,0,0,0,0,0,0,0,0,0,0,0,0,      0.001862645033,      0.001862645033,      0.001862645033,    2.910383046e-005,    2.910383046e-005,    2.910383046e-005,0,0,0,0,0,0,0,0,0,0,0,0,0,0,0,0,0,0,0,5,0,0,5,0,1,1,1,4,0,0,0,1,0,0,0,0,1,1,0,0,0,1,0,2,0,0,0,0,0,                   0,0,0,0,0,0,
758,143,143,'0x81FF',26,312,'0x2CBA',         54497.09912,1899,54496,        0.6603307801,0,0,0,0,0,0,0,0,0,0,0,0,0,0,0,0,0,0,0,0,0,0,0,0,0,0,0,      0.001862645033,      0.001862645033,      0.001862645033,    2.910383046e-005,    2.910383046e-005,    2.910383046e-005,0,0,0,0,0,0,0,0,0,0,0,0,0,0,0,0,0,0,0,5,0,0,5,0,1,1,1,4,0,0,0,1,0,0,0,0,1,1,0,0,0,1,0,2,0,0,0,0,0,                   0,0,0,0,0,0,
763,144,144,'0x81FF',26,312,'0x5F48',         54498.09912,1899,54497,        0.6803307801,0,0,0,0,0,0,0,0,0,0,0,0,0,0,0,0,0,0,0,0,0,0,0,0,0,0,0,      0.001862645033,      0.001862645033,      0.001862645033,    2.910383046e-005,    2.910383046e-005,    2.910383046e-005,0,0,0,0,0,0,0,0,0,0,0,0,0,0,0,0,0,0,0,5,0,0,5,0,1,1,1,4,0,0,0,1,0,0,0,0,1,1,0,0,0,1,0,2,0,0,0,0,0,                   0,0,0,0,0,0,
769,145,145,'0x81FF',26,312,'0x91D7',         54499.09912,1899,54498,        0.7003307801,0,0,0,0,0,0,0,0,0,0,0,0,0,0,0,0,0,0,0,0,0,0,0,0,0,0,0,      0.001862645033,      0.001862645033,      0.001862645033,    2.910383046e-005,    2.910383046e-005,    2.910383046e-005,0,0,0,0,0,0,0,0,0,0,0,0,0,0,0,0,0,0,0,5,0,0,5,0,1,1,1,4,0,0,0,1,0,0,0,0,1,1,0,0,0,1,0,2,0,0,0,0,0,                   0,0,0,0,0,0,
775,146,146,'0x81FF',26,312,'0xC466',         54500.09912,1899,54499,        0.7203307799,0,0,0,0,0,0,0,0,0,0,0,0,0,0,0,0,0,0,0,0,0,0,0,0,0,0,0,      0.001862645033,      0.001862645033,      0.001862645033,    2.910383046e-005,    2.910383046e-005,    2.910383046e-005,0,0,0,0,0,0,0,0,0,0,0,0,0,0,0,0,0,0,0,5,0,0,5,0,1,1,1,4,0,0,0,1,0,0,0,0,1,1,0,0,0,1,0,2,0,0,0,0,0,                   0,0,0,0,0,0,
780,147,147,'0x81FF',26,312,'0xF6F4',         54501.09912,1899,54500,        0.7403307799,0,0,0,0,0,0,0,0,0,0,0,0,0,0,0,0,0,0,0,0,0,0,0,0,0,0,0,      0.001862645033,      0.001862645033,      0.001862645033,    2.910383046e-005,    2.910383046e-005,    2.910383046e-005,0,0,0,0,0,0,0,0,0,0,0,0,0,0,0,0,0,0,0,5,0,0,5,0,1,1,1,4,0,0,0,1,0,0,0,0,1,1,0,0,0,1,0,2,0,0,0,0,0,                   0,0,0,0,0,0,
786,148,148,'0x81FF',26,312,'0x2982',         54502.09912,1899,54501,        0.7603307799,0,0,0,0,0,0,0,0,0,0,0,0,0,0,0,0,0,0,0,0,0,0,0,0,0,0,0,      0.001862645033,      0.001862645033,      0.001862645033,    2.910383046e-005,    2.910383046e-005,    2.910383046e-005,0,0,0,0,0,0,0,0,0,0,0,0,0,0,0,0,0,0,0,5,0,0,5,0,1,1,1,4,0,0,0,1,0,0,0,0,1,1,0,0,0,1,0,2,0,0,0,0,0,                   0,0,0,0,0,0,
