TOTAL MSG COUNT,MSG 21 COUNT,THIS CSV MSG COUNT,Synch ,Message ID ,Byte Count ,Checksum ,Time Stamp (seconds),GPS Week ,GPS Seconds ,GPS Sec. (Fraction) (seconds),Spare ,FOM ,TFOM ,Mode ,Latitude (deg),Longitude (deg),MSL Altitude (meters),Absolute Altitude (meters),Velocity N (meters/sec),   Velocity E (meters/sec),Velocity D (meters/sec),Acceleration N (meters/sec2),Acceleration E (meters/sec2),Acceleration D (meters/sec2),Roll (radians),Pitch (radians),Heading (radians),Roll Rate (radians/sec),Pitch Rate (radians/sec),Heading Rate (radians/sec),
1,1,1,'0x81FF',21,84,'0xCBD0',          136.098877,1513,136,       0.09899999993,0,0,0,0,0,0,0,0,0,0,0,0,0,0,0,0,0,0,0,0,
5,2,2,'0x81FF',21,84,'0xBBCF',          137.098877,1513,137,       0.09899999993,0,0,0,0,0,0,0,0,0,0,0,0,0,0,0,0,0,0,0,0,
9,3,3,'0x81FF',21,84,'0xABCE',          138.098877,1513,138,       0.09899999993,0,0,0,0,0,0,0,0,0,0,0,0,0,0,0,0,0,0,0,0,
13,4,4,'0x81FF',21,84,'0x9BCD',          139.098877,1513,139,       0.09899999993,0,0,0,0,0,0,0,0,0,0,0,0,0,0,0,0,0,0,0,0,
21,5,5,'0x81FF',21,84,'0x3C5F',         1.098876953,1513,1,       0.09899999993,0,0,0,0,0,0,0,0,0,0,0,0,0,0,0,0,0,0,0,0,
24,6,6,'0x81FF',21,84,'0x2C5E',         2.098876953,1513,2,       0.09899999993,0,0,0,0,0,0,0,0,0,0,0,0,0,0,0,0,0,0,0,0,
27,7,7,'0x81FF',21,84,'0x1C5D',         3.098876953,1513,3,       0.09899999993,0,0,0,0,0,0,0,0,0,0,0,0,0,0,0,0,0,0,0,0,
30,8,8,'0x81FF',21,84,'0xC5C',         4.098876953,1513,4,       0.09899999993,0,0,0,0,0,0,0,0,0,0,0,0,0,0,0,0,0,0,0,0,
33,9,9,'0x81FF',21,84,'0xFC5B',         5.098876953,1513,5,       0.09899999993,0,0,0,0,0,0,0,0,0,0,0,0,0,0,0,0,0,0,0,0,
36,10,10,'0x81FF',21,84,'0xEC5A',         6.098876953,1513,6,       0.09899999993,0,0,0,0,0,0,0,0,0,0,0,0,0,0,0,0,0,0,0,0,
39,11,11,'0x81FF',21,84,'0xDC59',         7.098876953,1513,7,       0.09899999993,0,0,0,0,0,0,0,0,0,0,0,0,0,0,0,0,0,0,0,0,
42,12,12,'0x81FF',21,84,'0xCC58',         8.098876953,1513,8,       0.09899999993,0,0,0,0,0,0,0,0,0,0,0,0,0,0,0,0,0,0,0,0,
45,13,13,'0x81FF',21,84,'0xBC57',         9.098876953,1513,9,       0.09899999993,0,0,0,0,0,0,0,0,0,0,0,0,0,0,0,0,0,0,0,0,
48,14,14,'0x81FF',21,84,'0xAC56',         10.09887695,1513,10,       0.09899999993,0,0,0,0,0,0,0,0,0,0,0,0,0,0,0,0,0,0,0,0,
51,15,15,'0x81FF',21,84,'0x9C55',         11.09887695,1513,11,       0.09899999993,0,0,0,0,0,0,0,0,0,0,0,0,0,0,0,0,0,0,0,0,
54,16,16,'0x81FF',21,84,'0x8C54',         12.09887695,1513,12,       0.09899999993,0,0,0,0,0,0,0,0,0,0,0,0,0,0,0,0,0,0,0,0,
57,17,17,'0x81FF',21,84,'0x7C53',         13.09887695,1513,13,       0.09899999993,0,0,0,0,0,0,0,0,0,0,0,0,0,0,0,0,0,0,0,0,
60,18,18,'0x81FF',21,84,'0x6C52',         14.09887695,1513,14,       0.09899999993,0,0,0,0,0,0,0,0,0,0,0,0,0,0,0,0,0,0,0,0,
63,19,19,'0x81FF',21,84,'0x5C51',         15.09887695,1513,15,       0.09899999993,0,0,0,0,0,0,0,0,0,0,0,0,0,0,0,0,0,0,0,0,
66,20,20,'0x81FF',21,84,'0x4C4F',         16.09887695,1513,16,       0.09899999993,0,0,0,0,0,0,0,0,0,0,0,0,0,0,0,0,0,0,0,0,
70,21,21,'0x81FF',21,84,'0x3C4E',         17.09887695,1513,17,       0.09899999993,0,0,0,0,0,0,0,0,0,0,0,0,0,0,0,0,0,0,0,0,
74,22,22,'0x81FF',21,84,'0x2C4D',         18.09887695,1513,18,       0.09899999993,0,0,0,0,0,0,0,0,0,0,0,0,0,0,0,0,0,0,0,0,
78,23,23,'0x81FF',21,84,'0x1C4C',         19.09887695,1513,19,       0.09899999993,0,0,0,0,0,0,0,0,0,0,0,0,0,0,0,0,0,0,0,0,
82,24,24,'0x81FF',21,84,'0xC4B',         20.09887695,1513,20,       0.09899999993,0,0,0,0,0,0,0,0,0,0,0,0,0,0,0,0,0,0,0,0,
86,25,25,'0x81FF',21,84,'0xFC4A',         21.09887695,1513,21,       0.09899999993,0,0,0,0,0,0,0,0,0,0,0,0,0,0,0,0,0,0,0,0,
90,26,26,'0x81FF',21,84,'0xEC49',         22.09887695,1513,22,       0.09899999993,0,0,0,0,0,0,0,0,0,0,0,0,0,0,0,0,0,0,0,0,
94,27,27,'0x81FF',21,84,'0xDC48',         23.09887695,1513,23,       0.09899999993,0,0,0,0,0,0,0,0,0,0,0,0,0,0,0,0,0,0,0,0,
98,28,28,'0x81FF',21,84,'0xCC47',         24.09887695,1513,24,       0.09899999993,0,0,0,0,0,0,0,0,0,0,0,0,0,0,0,0,0,0,0,0,
102,29,29,'0x81FF',21,84,'0xBC46',         25.09887695,1513,25,       0.09899999993,0,0,0,0,0,0,0,0,0,0,0,0,0,0,0,0,0,0,0,0,
106,30,30,'0x81FF',21,84,'0xAC45',         26.09887695,1513,26,       0.09899999993,0,0,0,0,0,0,0,0,0,0,0,0,0,0,0,0,0,0,0,0,
110,31,31,'0x81FF',21,84,'0x9C44',         27.09887695,1513,27,       0.09899999993,0,0,0,0,0,0,0,0,0,0,0,0,0,0,0,0,0,0,0,0,
114,32,32,'0x81FF',21,84,'0x8C43',         28.09887695,1513,28,       0.09899999993,0,0,0,0,0,0,0,0,0,0,0,0,0,0,0,0,0,0,0,0,
118,33,33,'0x81FF',21,84,'0x7C42',         29.09887695,1513,29,       0.09899999993,0,0,0,0,0,0,0,0,0,0,0,0,0,0,0,0,0,0,0,0,
122,34,34,'0x81FF',21,84,'0x6C41',         30.09887695,1513,30,       0.09899999993,0,0,0,0,0,0,0,0,0,0,0,0,0,0,0,0,0,0,0,0,
126,35,35,'0x81FF',21,84,'0x3C5F',         1.098876953,1513,1,       0.09899999993,0,0,0,0,0,0,0,0,0,0,0,0,0,0,0,0,0,0,0,0,
129,36,36,'0x81FF',21,84,'0x2C5E',         2.098876953,1513,2,       0.09899999993,0,0,0,0,0,0,0,0,0,0,0,0,0,0,0,0,0,0,0,0,
132,37,37,'0x81FF',21,84,'0x1C5D',         3.098876953,1513,3,       0.09899999993,0,0,0,0,0,0,0,0,0,0,0,0,0,0,0,0,0,0,0,0,
135,38,38,'0x81FF',21,84,'0xC5C',         4.098876953,1513,4,       0.09899999993,0,0,0,0,0,0,0,0,0,0,0,0,0,0,0,0,0,0,0,0,
138,39,39,'0x81FF',21,84,'0xFC5B',         5.098876953,1513,5,       0.09899999993,0,0,0,0,0,0,0,0,0,0,0,0,0,0,0,0,0,0,0,0,
141,40,40,'0x81FF',21,84,'0xEC5A',         6.098876953,1513,6,       0.09899999993,0,0,0,0,0,0,0,0,0,0,0,0,0,0,0,0,0,0,0,0,
144,41,41,'0x81FF',21,84,'0xDC59',         7.098876953,1513,7,       0.09899999993,0,0,0,0,0,0,0,0,0,0,0,0,0,0,0,0,0,0,0,0,
147,42,42,'0x81FF',21,84,'0xCC58',         8.098876953,1513,8,       0.09899999993,0,0,0,0,0,0,0,0,0,0,0,0,0,0,0,0,0,0,0,0,
150,43,43,'0x81FF',21,84,'0xBC57',         9.098876953,1513,9,       0.09899999993,0,0,0,0,0,0,0,0,0,0,0,0,0,0,0,0,0,0,0,0,
153,44,44,'0x81FF',21,84,'0xAC56',         10.09887695,1513,10,       0.09899999993,0,0,0,0,0,0,0,0,0,0,0,0,0,0,0,0,0,0,0,0,
156,45,45,'0x81FF',21,84,'0x9C55',         11.09887695,1513,11,       0.09899999993,0,0,0,0,0,0,0,0,0,0,0,0,0,0,0,0,0,0,0,0,
159,46,46,'0x81FF',21,84,'0x8C54',         12.09887695,1513,12,       0.09899999993,0,0,0,0,0,0,0,0,0,0,0,0,0,0,0,0,0,0,0,0,
162,47,47,'0x81FF',21,84,'0x7C53',         13.09887695,1513,13,       0.09899999993,0,0,0,0,0,0,0,0,0,0,0,0,0,0,0,0,0,0,0,0,
165,48,48,'0x81FF',21,84,'0x6C52',         14.09887695,1513,14,       0.09899999993,0,0,0,0,0,0,0,0,0,0,0,0,0,0,0,0,0,0,0,0,
168,49,49,'0x81FF',21,84,'0x5C51',         15.09887695,1513,15,       0.09899999993,0,0,0,0,0,0,0,0,0,0,0,0,0,0,0,0,0,0,0,0,
171,50,50,'0x81FF',21,84,'0x4C4F',         16.09887695,1513,16,       0.09899999993,0,0,0,0,0,0,0,0,0,0,0,0,0,0,0,0,0,0,0,0,
175,51,51,'0x81FF',21,84,'0x3C4E',         17.09887695,1513,17,       0.09899999993,0,0,0,0,0,0,0,0,0,0,0,0,0,0,0,0,0,0,0,0,
179,52,52,'0x81FF',21,84,'0x2C4D',         18.09887695,1513,18,       0.09899999993,0,0,0,0,0,0,0,0,0,0,0,0,0,0,0,0,0,0,0,0,
183,53,53,'0x81FF',21,84,'0x1C4C',         19.09887695,1513,19,       0.09899999993,0,0,0,0,0,0,0,0,0,0,0,0,0,0,0,0,0,0,0,0,
187,54,54,'0x81FF',21,84,'0xC4B',         20.09887695,1513,20,       0.09899999993,0,0,0,0,0,0,0,0,0,0,0,0,0,0,0,0,0,0,0,0,
191,55,55,'0x81FF',21,84,'0xFC4A',         21.09887695,1513,21,       0.09899999993,0,0,0,0,0,0,0,0,0,0,0,0,0,0,0,0,0,0,0,0,
195,56,56,'0x81FF',21,84,'0xEC49',         22.09887695,1513,22,       0.09899999993,0,0,0,0,0,0,0,0,0,0,0,0,0,0,0,0,0,0,0,0,
199,57,57,'0x81FF',21,84,'0xDC48',         23.09887695,1513,23,       0.09899999993,0,0,0,0,0,0,0,0,0,0,0,0,0,0,0,0,0,0,0,0,
203,58,58,'0x81FF',21,84,'0xCC47',         24.09887695,1513,24,       0.09899999993,0,0,0,0,0,0,0,0,0,0,0,0,0,0,0,0,0,0,0,0,
207,59,59,'0x81FF',21,84,'0xBC46',         25.09887695,1513,25,       0.09899999993,0,0,0,0,0,0,0,0,0,0,0,0,0,0,0,0,0,0,0,0,
211,60,60,'0x81FF',21,84,'0xAC45',         26.09887695,1513,26,       0.09899999993,0,0,0,0,0,0,0,0,0,0,0,0,0,0,0,0,0,0,0,0,
215,61,61,'0x81FF',21,84,'0x9C44',         27.09887695,1513,27,       0.09899999993,0,0,0,0,0,0,0,0,0,0,0,0,0,0,0,0,0,0,0,0,
219,62,62,'0x81FF',21,84,'0x8C43',         28.09887695,1513,28,       0.09899999993,0,0,0,0,0,0,0,0,0,0,0,0,0,0,0,0,0,0,0,0,
223,63,63,'0x81FF',21,84,'0x7C42',         29.09887695,1513,29,       0.09899999993,0,0,0,0,0,0,0,0,0,0,0,0,0,0,0,0,0,0,0,0,
227,64,64,'0x81FF',21,84,'0x6C41',         30.09887695,1513,30,       0.09899999993,0,0,0,0,0,0,0,0,0,0,0,0,0,0,0,0,0,0,0,0,
231,65,65,'0x81FF',21,84,'0x5C40',         31.09887695,1513,31,       0.09899999993,0,0,0,0,0,0,0,0,0,0,0,0,0,0,0,0,0,0,0,0,
235,66,66,'0x81FF',21,84,'0x4C3E',         32.09887695,1513,32,       0.09899999993,0,0,0,0,0,0,0,0,0,0,0,0,0,0,0,0,0,0,0,0,
239,67,67,'0x81FF',21,84,'0x3C3D',         33.09887695,1513,33,       0.09899999993,0,0,0,0,0,0,0,0,0,0,0,0,0,0,0,0,0,0,0,0,
243,68,68,'0x81FF',21,84,'0x2C3C',         34.09887695,1513,34,       0.09899999993,0,0,0,0,0,0,0,0,0,0,0,0,0,0,0,0,0,0,0,0,
247,69,69,'0x81FF',21,84,'0x1C3B',         35.09887695,1513,35,       0.09899999993,0,0,0,0,0,0,0,0,0,0,0,0,0,0,0,0,0,0,0,0,
251,70,70,'0x81FF',21,84,'0xC3A',         36.09887695,1513,36,       0.09899999993,0,0,0,0,0,0,0,0,0,0,0,0,0,0,0,0,0,0,0,0,
255,71,71,'0x81FF',21,84,'0xFC39',         37.09887695,1513,37,       0.09899999993,0,0,0,0,0,0,0,0,0,0,0,0,0,0,0,0,0,0,0,0,
259,72,72,'0x81FF',21,84,'0xEC38',         38.09887695,1513,38,       0.09899999993,0,0,0,0,0,0,0,0,0,0,0,0,0,0,0,0,0,0,0,0,
263,73,73,'0x81FF',21,84,'0xDC37',         39.09887695,1513,39,       0.09899999993,0,0,0,0,0,0,0,0,0,0,0,0,0,0,0,0,0,0,0,0,
267,74,74,'0x81FF',21,84,'0xCC36',         40.09887695,1513,40,       0.09899999993,0,0,0,0,0,0,0,0,0,0,0,0,0,0,0,0,0,0,0,0,
271,75,75,'0x81FF',21,84,'0xBC35',         41.09887695,1513,41,       0.09899999993,0,0,0,0,0,0,0,0,0,0,0,0,0,0,0,0,0,0,0,0,
275,76,76,'0x81FF',21,84,'0xAC34',         42.09887695,1513,42,       0.09899999993,0,0,0,0,0,0,0,0,0,0,0,0,0,0,0,0,0,0,0,0,
279,77,77,'0x81FF',21,84,'0x9C33',         43.09887695,1513,43,       0.09899999993,0,0,0,0,0,0,0,0,0,0,0,0,0,0,0,0,0,0,0,0,
283,78,78,'0x81FF',21,84,'0x8C32',         44.09887695,1513,44,       0.09899999993,0,0,0,0,0,0,0,0,0,0,0,0,0,0,0,0,0,0,0,0,
287,79,79,'0x81FF',21,84,'0x7C31',         45.09887695,1513,45,       0.09899999993,0,0,0,0,0,0,0,0,0,0,0,0,0,0,0,0,0,0,0,0,
291,80,80,'0x81FF',21,84,'0x6C30',         46.09887695,1513,46,       0.09899999993,0,0,0,0,0,0,0,0,0,0,0,0,0,0,0,0,0,0,0,0,
295,81,81,'0x81FF',21,84,'0x5C2F',         47.09887695,1513,47,       0.09899999993,0,0,0,0,0,0,0,0,0,0,0,0,0,0,0,0,0,0,0,0,
299,82,82,'0x81FF',21,84,'0x4C2D',         48.09887695,1513,48,       0.09899999993,0,0,0,0,0,0,0,0,0,0,0,0,0,0,0,0,0,0,0,0,
303,83,83,'0x81FF',21,84,'0x3C2C',         49.09887695,1513,49,       0.09899999993,0,0,0,0,0,0,0,0,0,0,0,0,0,0,0,0,0,0,0,0,
307,84,84,'0x81FF',21,84,'0x2C2B',         50.09887695,1513,50,       0.09899999993,0,0,0,0,0,0,0,0,0,0,0,0,0,0,0,0,0,0,0,0,
311,85,85,'0x81FF',21,84,'0x1C2A',         51.09887695,1513,51,       0.09899999993,0,0,0,0,0,0,0,0,0,0,0,0,0,0,0,0,0,0,0,0,
315,86,86,'0x81FF',21,84,'0xC29',         52.09887695,1513,52,       0.09899999993,0,0,0,0,0,0,0,0,0,0,0,0,0,0,0,0,0,0,0,0,
319,87,87,'0x81FF',21,84,'0xFC28',         53.09887695,1513,53,       0.09899999993,0,0,0,0,0,0,0,0,0,0,0,0,0,0,0,0,0,0,0,0,
323,88,88,'0x81FF',21,84,'0xEC27',         54.09887695,1513,54,       0.09899999993,0,0,0,0,0,0,0,0,0,0,0,0,0,0,0,0,0,0,0,0,
327,89,89,'0x81FF',21,84,'0xDC26',         55.09887695,1513,55,       0.09899999993,0,0,0,0,0,0,0,0,0,0,0,0,0,0,0,0,0,0,0,0,
331,90,90,'0x81FF',21,84,'0xCC25',         56.09887695,1513,56,       0.09899999993,0,0,0,0,0,0,0,0,0,0,0,0,0,0,0,0,0,0,0,0,
335,91,91,'0x81FF',21,84,'0xBC24',         57.09887695,1513,57,       0.09899999993,0,0,0,0,0,0,0,0,0,0,0,0,0,0,0,0,0,0,0,0,
339,92,92,'0x81FF',21,84,'0xAC23',         58.09887695,1513,58,       0.09899999993,0,0,0,0,0,0,0,0,0,0,0,0,0,0,0,0,0,0,0,0,
343,93,93,'0x81FF',21,84,'0x9C22',         59.09887695,1513,59,       0.09899999993,0,0,0,0,0,0,0,0,0,0,0,0,0,0,0,0,0,0,0,0,
347,94,94,'0x81FF',21,84,'0x8C21',         60.09887695,1513,60,       0.09899999993,0,0,0,0,0,0,0,0,0,0,0,0,0,0,0,0,0,0,0,0,
351,95,95,'0x81FF',21,84,'0x7C20',         61.09887695,1513,61,       0.09899999993,0,0,0,0,0,0,0,0,0,0,0,0,0,0,0,0,0,0,0,0,
355,96,96,'0x81FF',21,84,'0x6C1F',         62.09887695,1513,62,       0.09899999993,0,0,0,0,0,0,0,0,0,0,0,0,0,0,0,0,0,0,0,0,
359,97,97,'0x81FF',21,84,'0x5C1E',         63.09887695,1513,63,       0.09899999993,0,0,0,0,0,0,0,0,0,0,0,0,0,0,0,0,0,0,0,0,
363,98,98,'0x81FF',21,84,'0x4C1C',         64.09887695,1513,64,       0.09899999993,0,0,0,0,0,0,0,0,0,0,0,0,0,0,0,0,0,0,0,0,
367,99,99,'0x81FF',21,84,'0x3C1B',         65.09887695,1513,65,       0.09899999993,0,0,0,0,0,0,0,0,0,0,0,0,0,0,0,0,0,0,0,0,
371,100,100,'0x81FF',21,84,'0x2C1A',         66.09887695,1513,66,       0.09899999993,0,0,0,0,0,0,0,0,0,0,0,0,0,0,0,0,0,0,0,0,
375,101,101,'0x81FF',21,84,'0x1C19',         67.09887695,1513,67,       0.09899999993,0,0,0,0,0,0,0,0,0,0,0,0,0,0,0,0,0,0,0,0,
379,102,102,'0x81FF',21,84,'0xC18',         68.09887695,1513,68,       0.09899999993,0,0,0,0,0,0,0,0,0,0,0,0,0,0,0,0,0,0,0,0,
383,103,103,'0x81FF',21,84,'0xFC17',         69.09887695,1513,69,       0.09899999993,0,0,0,0,0,0,0,0,0,0,0,0,0,0,0,0,0,0,0,0,
387,104,104,'0x81FF',21,84,'0xEC16',         70.09887695,1513,70,       0.09899999993,0,0,0,0,0,0,0,0,0,0,0,0,0,0,0,0,0,0,0,0,
391,105,105,'0x81FF',21,84,'0xDC15',         71.09887695,1513,71,       0.09899999993,0,0,0,0,0,0,0,0,0,0,0,0,0,0,0,0,0,0,0,0,
395,106,106,'0x81FF',21,84,'0xCC14',         72.09887695,1513,72,       0.09899999993,0,0,0,0,0,0,0,0,0,0,0,0,0,0,0,0,0,0,0,0,
399,107,107,'0x81FF',21,84,'0xBC13',         73.09887695,1513,73,       0.09899999993,0,0,0,0,0,0,0,0,0,0,0,0,0,0,0,0,0,0,0,0,
403,108,108,'0x81FF',21,84,'0xAC12',         74.09887695,1513,74,       0.09899999993,0,0,0,0,0,0,0,0,0,0,0,0,0,0,0,0,0,0,0,0,
407,109,109,'0x81FF',21,84,'0x9C11',         75.09887695,1513,75,       0.09899999993,0,0,0,0,0,0,0,0,0,0,0,0,0,0,0,0,0,0,0,0,
411,110,110,'0x81FF',21,84,'0x8C10',         76.09887695,1513,76,       0.09899999993,0,0,0,0,0,0,0,0,0,0,0,0,0,0,0,0,0,0,0,0,
415,111,111,'0x81FF',21,84,'0x7C0F',         77.09887695,1513,77,       0.09899999993,0,0,0,0,0,0,0,0,0,0,0,0,0,0,0,0,0,0,0,0,
419,112,112,'0x81FF',21,84,'0x6C0E',         78.09887695,1513,78,       0.09899999993,0,0,0,0,0,0,0,0,0,0,0,0,0,0,0,0,0,0,0,0,
423,113,113,'0x81FF',21,84,'0x5C0D',         79.09887695,1513,79,       0.09899999993,0,0,0,0,0,0,0,0,0,0,0,0,0,0,0,0,0,0,0,0,
429,114,114,'0x81FF',21,84,'0xE8EC',         54440.09888,1899,54440,       0.09899999993,0,0,0,0,0,0,0,0,0,0,0,0,0,0,0,0,0,0,0,0,
436,115,115,'0x81FF',21,84,'0xE8EC',         54440.09888,1899,54440,       0.09899999993,0,0,0,0,0,0,0,0,0,0,0,0,0,0,0,0,0,0,0,0,
442,116,116,'0x81FF',21,84,'0xD8EB',         54441.09888,1899,54441,       0.09899999993,0,0,0,0,0,0,0,0,0,0,0,0,0,0,0,0,0,0,0,0,
448,117,117,'0x81FF',21,84,'0xB8E9',         54443.09888,1899,54443,       0.09899999993,0,0,0,0,0,0,0,0,0,0,0,0,0,0,0,0,0,0,0,0,
454,118,118,'0x81FF',21,84,'0xA8E8',         54444.09888,1899,54444,       0.09899999993,0,0,0,0,0,0,0,0,0,0,0,0,0,0,0,0,0,0,0,0,
459,119,119,'0x81FF',21,84,'0x98E7',         54445.09888,1899,54445,       0.09899999993,0,0,0,0,0,0,0,0,0,0,0,0,0,0,0,0,0,0,0,0,
465,120,120,'0x81FF',21,84,'0x88E6',         54446.09888,1899,54446,       0.09899999993,0,0,0,0,0,0,0,0,0,0,0,0,0,0,0,0,0,0,0,0,
471,121,121,'0x81FF',21,84,'0x78E5',         54447.09888,1899,54447,       0.09899999993,0,0,0,0,0,0,0,0,0,0,0,0,0,0,0,0,0,0,0,0,
476,122,122,'0x81FF',21,84,'0x68E3',         54448.09888,1899,54448,       0.09899999993,0,0,0,0,0,0,0,0,0,0,0,0,0,0,0,0,0,0,0,0,
482,123,123,'0x81FF',21,84,'0x58E2',         54449.09888,1899,54449,       0.09899999993,0,0,0,0,0,0,0,0,0,0,0,0,0,0,0,0,0,0,0,0,
488,124,124,'0x81FF',21,84,'0x48E1',         54450.09888,1899,54450,       0.09899999993,0,0,0,0,0,0,0,0,0,0,0,0,0,0,0,0,0,0,0,0,
493,125,125,'0x81FF',21,84,'0x38E0',         54451.09888,1899,54451,       0.09899999993,0,0,0,0,0,0,0,0,0,0,0,0,0,0,0,0,0,0,0,0,
499,126,126,'0x81FF',21,84,'0x28DF',         54452.09888,1899,54452,       0.09899999993,0,0,0,0,0,0,0,0,0,0,0,0,0,0,0,0,0,0,0,0,
505,127,127,'0x81FF',21,84,'0x18DE',         54453.09888,1899,54453,       0.09899999993,0,0,0,0,0,0,0,0,0,0,0,0,0,0,0,0,0,0,0,0,
510,128,128,'0x81FF',21,84,'0x8DD',         54454.09888,1899,54454,       0.09899999993,0,0,0,0,0,0,0,0,0,0,0,0,0,0,0,0,0,0,0,0,
516,129,129,'0x81FF',21,84,'0xF8DC',         54455.09888,1899,54455,       0.09899999993,0,0,0,0,0,0,0,0,0,0,0,0,0,0,0,0,0,0,0,0,
522,130,130,'0x81FF',21,84,'0xE8DB',         54456.09888,1899,54456,       0.09899999993,0,0,0,0,0,0,0,0,0,0,0,0,0,0,0,0,0,0,0,0,
527,131,131,'0x81FF',21,84,'0xD8DA',         54457.09888,1899,54457,       0.09899999993,0,0,0,0,0,0,0,0,0,0,0,0,0,0,0,0,0,0,0,0,
533,132,132,'0x81FF',21,84,'0xC8D9',         54458.09888,1899,54458,       0.09899999993,0,0,0,0,0,0,0,0,0,0,0,0,0,0,0,0,0,0,0,0,
539,133,133,'0x81FF',21,84,'0xB8D8',         54459.09888,1899,54459,       0.09899999993,0,0,0,0,0,0,0,0,0,0,0,0,0,0,0,0,0,0,0,0,
544,134,134,'0x81FF',21,84,'0xA8D7',         54460.09888,1899,54460,       0.09899999993,0,0,0,0,0,0,0,0,0,0,0,0,0,0,0,0,0,0,0,0,
550,135,135,'0x81FF',21,84,'0x98D6',         54461.09888,1899,54461,       0.09899999993,0,0,0,0,0,0,0,0,0,0,0,0,0,0,0,0,0,0,0,0,
556,136,136,'0x81FF',21,84,'0x88D5',         54462.09888,1899,54462,       0.09899999993,0,0,0,0,0,0,0,0,0,0,0,0,0,0,0,0,0,0,0,0,
561,137,137,'0x81FF',21,84,'0x78D4',         54463.09888,1899,54463,       0.09899999993,0,0,0,0,0,0,0,0,0,0,0,0,0,0,0,0,0,0,0,0,
567,138,138,'0x81FF',21,84,'0x68D2',         54464.09888,1899,54464,       0.09899999993,0,0,0,0,0,0,0,0,0,0,0,0,0,0,0,0,0,0,0,0,
573,139,139,'0x81FF',21,84,'0x58D1',         54465.09888,1899,54465,       0.09899999993,0,0,0,0,0,0,0,0,0,0,0,0,0,0,0,0,0,0,0,0,
578,140,140,'0x81FF',21,84,'0x48D0',         54466.09888,1899,54466,       0.09899999993,0,0,0,0,0,0,0,0,0,0,0,0,0,0,0,0,0,0,0,0,
584,141,141,'0x81FF',21,84,'0x38CF',         54467.09888,1899,54467,       0.09899999993,0,0,0,0,0,0,0,0,0,0,0,0,0,0,0,0,0,0,0,0,
590,142,142,'0x81FF',21,84,'0x28CE',         54468.09888,1899,54468,       0.09899999993,0,0,0,0,0,0,0,0,0,0,0,0,0,0,0,0,0,0,0,0,
595,143,143,'0x81FF',21,84,'0x18CD',         54469.09888,1899,54469,       0.09899999993,0,0,0,0,0,0,0,0,0,0,0,0,0,0,0,0,0,0,0,0,
601,144,144,'0x81FF',21,84,'0x8CC',         54470.09888,1899,54470,       0.09899999993,0,0,0,0,0,0,0,0,0,0,0,0,0,0,0,0,0,0,0,0,
607,145,145,'0x81FF',21,84,'0xF8CB',         54471.09888,1899,54471,       0.09899999993,0,0,0,0,0,0,0,0,0,0,0,0,0,0,0,0,0,0,0,0,
612,146,146,'0x81FF',21,84,'0xE8CA',         54472.09888,1899,54472,       0.09899999993,0,0,0,0,0,0,0,0,0,0,0,0,0,0,0,0,0,0,0,0,
618,147,147,'0x81FF',21,84,'0xD8C9',         54473.09888,1899,54473,       0.09899999993,0,0,0,0,0,0,0,0,0,0,0,0,0,0,0,0,0,0,0,0,
624,148,148,'0x81FF',21,84,'0xC8C8',         54474.09888,1899,54474,       0.09899999993,0,0,0,0,0,0,0,0,0,0,0,0,0,0,0,0,0,0,0,0,
629,149,149,'0x81FF',21,84,'0xB8C7',         54475.09888,1899,54475,       0.09899999993,0,0,0,0,0,0,0,0,0,0,0,0,0,0,0,0,0,0,0,0,
635,150,150,'0x81FF',21,84,'0xA8C6',         54476.09888,1899,54476,       0.09899999993,0,0,0,0,0,0,0,0,0,0,0,0,0,0,0,0,0,0,0,0,
641,151,151,'0x81FF',21,84,'0x98C5',         54477.09888,1899,54477,       0.09899999993,0,0,0,0,0,0,0,0,0,0,0,0,0,0,0,0,0,0,0,0,
646,152,152,'0x81FF',21,84,'0x88C4',         54478.09888,1899,54478,       0.09899999993,0,0,0,0,0,0,0,0,0,0,0,0,0,0,0,0,0,0,0,0,
652,153,153,'0x81FF',21,84,'0x78C3',         54479.09888,1899,54479,       0.09899999993,0,0,0,0,0,0,0,0,0,0,0,0,0,0,0,0,0,0,0,0,
658,154,154,'0x81FF',21,84,'0x68C1',         54480.09888,1899,54480,       0.09899999993,0,0,0,0,0,0,0,0,0,0,0,0,0,0,0,0,0,0,0,0,
663,155,155,'0x81FF',21,84,'0x58C0',         54481.09888,1899,54481,       0.09899999993,0,0,0,0,0,0,0,0,0,0,0,0,0,0,0,0,0,0,0,0,
669,156,156,'0x81FF',21,84,'0x48BF',         54482.09888,1899,54482,       0.09899999993,0,0,0,0,0,0,0,0,0,0,0,0,0,0,0,0,0,0,0,0,
675,157,157,'0x81FF',21,84,'0x38BE',         54483.09888,1899,54483,       0.09899999993,0,0,0,0,0,0,0,0,0,0,0,0,0,0,0,0,0,0,0,0,
680,158,158,'0x81FF',21,84,'0x28BD',         54484.09888,1899,54484,       0.09899999993,0,0,0,0,0,0,0,0,0,0,0,0,0,0,0,0,0,0,0,0,
686,159,159,'0x81FF',21,84,'0x18BC',         54485.09888,1899,54485,       0.09899999993,0,0,0,0,0,0,0,0,0,0,0,0,0,0,0,0,0,0,0,0,
692,160,160,'0x81FF',21,84,'0x8BB',         54486.09888,1899,54486,       0.09899999993,0,0,0,0,0,0,0,0,0,0,0,0,0,0,0,0,0,0,0,0,
697,161,161,'0x81FF',21,84,'0xF8BA',         54487.09888,1899,54487,       0.09899999993,0,0,0,0,0,0,0,0,0,0,0,0,0,0,0,0,0,0,0,0,
703,162,162,'0x81FF',21,84,'0xE8B9',         54488.09888,1899,54488,       0.09899999993,0,0,0,0,0,0,0,0,0,0,0,0,0,0,0,0,0,0,0,0,
709,163,163,'0x81FF',21,84,'0xD8B8',         54489.09888,1899,54489,       0.09899999993,0,0,0,0,0,0,0,0,0,0,0,0,0,0,0,0,0,0,0,0,
714,164,164,'0x81FF',21,84,'0xC8B7',         54490.09888,1899,54490,       0.09899999993,0,0,0,0,0,0,0,0,0,0,0,0,0,0,0,0,0,0,0,0,
720,165,165,'0x81FF',21,84,'0xB8B6',         54491.09888,1899,54491,       0.09899999993,0,0,0,0,0,0,0,0,0,0,0,0,0,0,0,0,0,0,0,0,
726,166,166,'0x81FF',21,84,'0xA8B5',         54492.09888,1899,54492,       0.09899999993,0,0,0,0,0,0,0,0,0,0,0,0,0,0,0,0,0,0,0,0,
731,167,167,'0x81FF',21,84,'0x98B4',         54493.09888,1899,54493,       0.09899999993,0,0,0,0,0,0,0,0,0,0,0,0,0,0,0,0,0,0,0,0,
737,168,168,'0x81FF',21,84,'0x88B3',         54494.09888,1899,54494,       0.09899999993,0,0,0,0,0,0,0,0,0,0,0,0,0,0,0,0,0,0,0,0,
743,169,169,'0x81FF',21,84,'0x78B2',         54495.09888,1899,54495,       0.09899999993,0,0,0,0,0,0,0,0,0,0,0,0,0,0,0,0,0,0,0,0,
748,170,170,'0x81FF',21,84,'0x68B0',         54496.09888,1899,54496,       0.09899999993,0,0,0,0,0,0,0,0,0,0,0,0,0,0,0,0,0,0,0,0,
754,171,171,'0x81FF',21,84,'0x58AF',         54497.09888,1899,54497,       0.09899999993,0,0,0,0,0,0,0,0,0,0,0,0,0,0,0,0,0,0,0,0,
760,172,172,'0x81FF',21,84,'0x48AE',         54498.09888,1899,54498,       0.09899999993,0,0,0,0,0,0,0,0,0,0,0,0,0,0,0,0,0,0,0,0,
765,173,173,'0x81FF',21,84,'0x38AD',         54499.09888,1899,54499,       0.09899999993,0,0,0,0,0,0,0,0,0,0,0,0,0,0,0,0,0,0,0,0,
771,174,174,'0x81FF',21,84,'0x28AC',         54500.09888,1899,54500,       0.09899999993,0,0,0,0,0,0,0,0,0,0,0,0,0,0,0,0,0,0,0,0,
777,175,175,'0x81FF',21,84,'0x18AB',         54501.09888,1899,54501,       0.09899999993,0,0,0,0,0,0,0,0,0,0,0,0,0,0,0,0,0,0,0,0,
782,176,176,'0x81FF',21,84,'0x8AA',         54502.09888,1899,54502,       0.09899999993,0,0,0,0,0,0,0,0,0,0,0,0,0,0,0,0,0,0,0,0,
788,177,177,'0x81FF',21,84,'0xF8A9',         54503.09888,1899,54503,       0.09899999993,0,0,0,0,0,0,0,0,0,0,0,0,0,0,0,0,0,0,0,0,
794,178,178,'0x81FF',21,84,'0xE8A8',         54504.09888,1899,54504,       0.09899999993,0,0,0,0,0,0,0,0,0,0,0,0,0,0,0,0,0,0,0,0,
799,179,179,'0x81FF',21,84,'0xD8A7',         54505.09888,1899,54505,       0.09899999993,0,0,0,0,0,0,0,0,0,0,0,0,0,0,0,0,0,0,0,0,
805,180,180,'0x81FF',21,84,'0xC8A6',         54506.09888,1899,54506,       0.09899999993,0,0,0,0,0,0,0,0,0,0,0,0,0,0,0,0,0,0,0,0,
811,181,181,'0x81FF',21,84,'0xB8A5',         54507.09888,1899,54507,       0.09899999993,0,0,0,0,0,0,0,0,0,0,0,0,0,0,0,0,0,0,0,0,
816,182,182,'0x81FF',21,84,'0xA8A4',         54508.09888,1899,54508,       0.09899999993,0,0,0,0,0,0,0,0,0,0,0,0,0,0,0,0,0,0,0,0,
822,183,183,'0x81FF',21,84,'0x98A3',         54509.09888,1899,54509,       0.09899999993,0,0,0,0,0,0,0,0,0,0,0,0,0,0,0,0,0,0,0,0,
828,184,184,'0x81FF',21,84,'0x88A2',         54510.09888,1899,54510,       0.09899999993,0,0,0,0,0,0,0,0,0,0,0,0,0,0,0,0,0,0,0,0,
833,185,185,'0x81FF',21,84,'0x78A1',         54511.09888,1899,54511,       0.09899999993,0,0,0,0,0,0,0,0,0,0,0,0,0,0,0,0,0,0,0,0,
839,186,186,'0x81FF',21,84,'0x689F',         54512.09888,1899,54512,       0.09899999993,0,0,0,0,0,0,0,0,0,0,0,0,0,0,0,0,0,0,0,0,
845,187,187,'0x81FF',21,84,'0x589E',         54513.09888,1899,54513,       0.09899999993,0,0,0,0,0,0,0,0,0,0,0,0,0,0,0,0,0,0,0,0,
850,188,188,'0x81FF',21,84,'0x489D',         54514.09888,1899,54514,       0.09899999993,0,0,0,0,0,0,0,0,0,0,0,0,0,0,0,0,0,0,0,0,
856,189,189,'0x81FF',21,84,'0x389C',         54515.09888,1899,54515,       0.09899999993,0,0,0,0,0,0,0,0,0,0,0,0,0,0,0,0,0,0,0,0,
862,190,190,'0x81FF',21,84,'0x289B',         54516.09888,1899,54516,       0.09899999993,0,0,0,0,0,0,0,0,0,0,0,0,0,0,0,0,0,0,0,0,
867,191,191,'0x81FF',21,84,'0x189A',         54517.09888,1899,54517,       0.09899999993,0,0,0,0,0,0,0,0,0,0,0,0,0,0,0,0,0,0,0,0,
873,192,192,'0x81FF',21,84,'0x899',         54518.09888,1899,54518,       0.09899999993,0,0,0,0,0,0,0,0,0,0,0,0,0,0,0,0,0,0,0,0,
879,193,193,'0x81FF',21,84,'0xF898',         54519.09888,1899,54519,       0.09899999993,0,0,0,0,0,0,0,0,0,0,0,0,0,0,0,0,0,0,0,0,
884,194,194,'0x81FF',21,84,'0xE897',         54520.09888,1899,54520,       0.09899999993,0,0,0,0,0,0,0,0,0,0,0,0,0,0,0,0,0,0,0,0,
890,195,195,'0x81FF',21,84,'0xD896',         54521.09888,1899,54521,       0.09899999993,0,0,0,0,0,0,0,0,0,0,0,0,0,0,0,0,0,0,0,0,
896,196,196,'0x81FF',21,84,'0xC895',         54522.09888,1899,54522,       0.09899999993,0,0,0,0,0,0,0,0,0,0,0,0,0,0,0,0,0,0,0,0,
901,197,197,'0x81FF',21,84,'0xB894',         54523.09888,1899,54523,       0.09899999993,0,0,0,0,0,0,0,0,0,0,0,0,0,0,0,0,0,0,0,0,
907,198,198,'0x81FF',21,84,'0xA893',         54524.09888,1899,54524,       0.09899999993,0,0,0,0,0,0,0,0,0,0,0,0,0,0,0,0,0,0,0,0,
913,199,199,'0x81FF',21,84,'0x9892',         54525.09888,1899,54525,       0.09899999993,0,0,0,0,0,0,0,0,0,0,0,0,0,0,0,0,0,0,0,0,
918,200,200,'0x81FF',21,84,'0x8891',         54526.09888,1899,54526,       0.09899999993,0,0,0,0,0,0,0,0,0,0,0,0,0,0,0,0,0,0,0,0,
924,201,201,'0x81FF',21,84,'0x7890',         54527.09888,1899,54527,       0.09899999993,0,0,0,0,0,0,0,0,0,0,0,0,0,0,0,0,0,0,0,0,
930,202,202,'0x81FF',21,84,'0x688E',         54528.09888,1899,54528,       0.09899999993,0,0,0,0,0,0,0,0,0,0,0,0,0,0,0,0,0,0,0,0,
935,203,203,'0x81FF',21,84,'0x588D',         54529.09888,1899,54529,       0.09899999993,0,0,0,0,0,0,0,0,0,0,0,0,0,0,0,0,0,0,0,0,
941,204,204,'0x81FF',21,84,'0x488C',         54530.09888,1899,54530,       0.09899999993,0,0,0,0,0,0,0,0,0,0,0,0,0,0,0,0,0,0,0,0,
947,205,205,'0x81FF',21,84,'0x388B',         54531.09888,1899,54531,       0.09899999993,0,0,0,0,0,0,0,0,0,0,0,0,0,0,0,0,0,0,0,0,
952,206,206,'0x81FF',21,84,'0x288A',         54532.09888,1899,54532,       0.09899999993,0,0,0,0,0,0,0,0,0,0,0,0,0,0,0,0,0,0,0,0,
958,207,207,'0x81FF',21,84,'0x1889',         54533.09888,1899,54533,       0.09899999993,0,0,0,0,0,0,0,0,0,0,0,0,0,0,0,0,0,0,0,0,
964,208,208,'0x81FF',21,84,'0x888',         54534.09888,1899,54534,       0.09899999993,0,0,0,0,0,0,0,0,0,0,0,0,0,0,0,0,0,0,0,0,
969,209,209,'0x81FF',21,84,'0xF887',         54535.09888,1899,54535,       0.09899999993,0,0,0,0,0,0,0,0,0,0,0,0,0,0,0,0,0,0,0,0,
975,210,210,'0x81FF',21,84,'0xE886',         54536.09888,1899,54536,       0.09899999993,0,0,0,0,0,0,0,0,0,0,0,0,0,0,0,0,0,0,0,0,
981,211,211,'0x81FF',21,84,'0xD885',         54537.09888,1899,54537,       0.09899999993,0,0,0,0,0,0,0,0,0,0,0,0,0,0,0,0,0,0,0,0,
986,212,212,'0x81FF',21,84,'0xC884',         54538.09888,1899,54538,       0.09899999993,0,0,0,0,0,0,0,0,0,0,0,0,0,0,0,0,0,0,0,0,
992,213,213,'0x81FF',21,84,'0xB883',         54539.09888,1899,54539,       0.09899999993,0,0,0,0,0,0,0,0,0,0,0,0,0,0,0,0,0,0,0,0,
998,214,214,'0x81FF',21,84,'0xA882',         54540.09888,1899,54540,       0.09899999993,0,0,0,0,0,0,0,0,0,0,0,0,0,0,0,0,0,0,0,0,
1003,215,215,'0x81FF',21,84,'0x9881',         54541.09888,1899,54541,       0.09899999993,0,0,0,0,0,0,0,0,0,0,0,0,0,0,0,0,0,0,0,0,
1009,216,216,'0x81FF',21,84,'0x8880',         54542.09888,1899,54542,       0.09899999993,0,0,0,0,0,0,0,0,0,0,0,0,0,0,0,0,0,0,0,0,
1015,217,217,'0x81FF',21,84,'0x787F',         54543.09888,1899,54543,       0.09899999993,0,0,0,0,0,0,0,0,0,0,0,0,0,0,0,0,0,0,0,0,
1020,218,218,'0x81FF',21,84,'0x687D',         54544.09888,1899,54544,       0.09899999993,0,0,0,0,0,0,0,0,0,0,0,0,0,0,0,0,0,0,0,0,
1026,219,219,'0x81FF',21,84,'0x587C',         54545.09888,1899,54545,       0.09899999993,0,0,0,0,0,0,0,0,0,0,0,0,0,0,0,0,0,0,0,0,
1032,220,220,'0x81FF',21,84,'0x487B',         54546.09888,1899,54546,       0.09899999993,0,0,0,0,0,0,0,0,0,0,0,0,0,0,0,0,0,0,0,0,
1037,221,221,'0x81FF',21,84,'0x387A',         54547.09888,1899,54547,       0.09899999993,0,0,0,0,0,0,0,0,0,0,0,0,0,0,0,0,0,0,0,0,
1043,222,222,'0x81FF',21,84,'0x2879',         54548.09888,1899,54548,       0.09899999993,0,0,0,0,0,0,0,0,0,0,0,0,0,0,0,0,0,0,0,0,
1049,223,223,'0x81FF',21,84,'0x1878',         54549.09888,1899,54549,       0.09899999993,0,0,0,0,0,0,0,0,0,0,0,0,0,0,0,0,0,0,0,0,
1054,224,224,'0x81FF',21,84,'0x877',         54550.09888,1899,54550,       0.09899999993,0,0,0,0,0,0,0,0,0,0,0,0,0,0,0,0,0,0,0,0,
1060,225,225,'0x81FF',21,84,'0xF876',         54551.09888,1899,54551,       0.09899999993,0,0,0,0,0,0,0,0,0,0,0,0,0,0,0,0,0,0,0,0,
1066,226,226,'0x81FF',21,84,'0xE875',         54552.09888,1899,54552,       0.09899999993,0,0,0,0,0,0,0,0,0,0,0,0,0,0,0,0,0,0,0,0,
1071,227,227,'0x81FF',21,84,'0xD874',         54553.09888,1899,54553,       0.09899999993,0,0,0,0,0,0,0,0,0,0,0,0,0,0,0,0,0,0,0,0,
1077,228,228,'0x81FF',21,84,'0xC873',         54554.09888,1899,54554,       0.09899999993,0,0,0,0,0,0,0,0,0,0,0,0,0,0,0,0,0,0,0,0,
1083,229,229,'0x81FF',21,84,'0xB872',         54555.09888,1899,54555,       0.09899999993,0,0,0,0,0,0,0,0,0,0,0,0,0,0,0,0,0,0,0,0,
1088,230,230,'0x81FF',21,84,'0xA871',         54556.09888,1899,54556,       0.09899999993,0,0,0,0,0,0,0,0,0,0,0,0,0,0,0,0,0,0,0,0,
1094,231,231,'0x81FF',21,84,'0x9870',         54557.09888,1899,54557,       0.09899999993,0,0,0,0,0,0,0,0,0,0,0,0,0,0,0,0,0,0,0,0,
1100,232,232,'0x81FF',21,84,'0x886F',         54558.09888,1899,54558,       0.09899999993,0,0,0,0,0,0,0,0,0,0,0,0,0,0,0,0,0,0,0,0,
1105,233,233,'0x81FF',21,84,'0x786E',         54559.09888,1899,54559,       0.09899999993,0,0,0,0,0,0,0,0,0,0,0,0,0,0,0,0,0,0,0,0,
1111,234,234,'0x81FF',21,84,'0x686C',         54560.09888,1899,54560,       0.09899999993,0,0,0,0,0,0,0,0,0,0,0,0,0,0,0,0,0,0,0,0,
1117,235,235,'0x81FF',21,84,'0x586B',         54561.09888,1899,54561,       0.09899999993,0,0,0,0,0,0,0,0,0,0,0,0,0,0,0,0,0,0,0,0,
1122,236,236,'0x81FF',21,84,'0x486A',         54562.09888,1899,54562,       0.09899999993,0,0,0,0,0,0,0,0,0,0,0,0,0,0,0,0,0,0,0,0,
1128,237,237,'0x81FF',21,84,'0x3869',         54563.09888,1899,54563,       0.09899999993,0,0,0,0,0,0,0,0,0,0,0,0,0,0,0,0,0,0,0,0,
1134,238,238,'0x81FF',21,84,'0x2868',         54564.09888,1899,54564,       0.09899999993,0,0,0,0,0,0,0,0,0,0,0,0,0,0,0,0,0,0,0,0,
1139,239,239,'0x81FF',21,84,'0x1867',         54565.09888,1899,54565,       0.09899999993,0,0,0,0,0,0,0,0,0,0,0,0,0,0,0,0,0,0,0,0,
1145,240,240,'0x81FF',21,84,'0x866',         54566.09888,1899,54566,       0.09899999993,0,0,0,0,0,0,0,0,0,0,0,0,0,0,0,0,0,0,0,0,
1151,241,241,'0x81FF',21,84,'0xF865',         54567.09888,1899,54567,       0.09899999993,0,0,0,0,0,0,0,0,0,0,0,0,0,0,0,0,0,0,0,0,
1156,242,242,'0x81FF',21,84,'0xE864',         54568.09888,1899,54568,       0.09899999993,0,0,0,0,0,0,0,0,0,0,0,0,0,0,0,0,0,0,0,0,
1162,243,243,'0x81FF',21,84,'0xD863',         54569.09888,1899,54569,       0.09899999993,0,0,0,0,0,0,0,0,0,0,0,0,0,0,0,0,0,0,0,0,
1168,244,244,'0x81FF',21,84,'0xC862',         54570.09888,1899,54570,       0.09899999993,0,0,0,0,0,0,0,0,0,0,0,0,0,0,0,0,0,0,0,0,
1173,245,245,'0x81FF',21,84,'0xB861',         54571.09888,1899,54571,       0.09899999993,0,0,0,0,0,0,0,0,0,0,0,0,0,0,0,0,0,0,0,0,
1179,246,246,'0x81FF',21,84,'0xA860',         54572.09888,1899,54572,       0.09899999993,0,0,0,0,0,0,0,0,0,0,0,0,0,0,0,0,0,0,0,0,
1185,247,247,'0x81FF',21,84,'0x985F',         54573.09888,1899,54573,       0.09899999993,0,0,0,0,0,0,0,0,0,0,0,0,0,0,0,0,0,0,0,0,
1190,248,248,'0x81FF',21,84,'0x885E',         54574.09888,1899,54574,       0.09899999993,0,0,0,0,0,0,0,0,0,0,0,0,0,0,0,0,0,0,0,0,
1196,249,249,'0x81FF',21,84,'0x785D',         54575.09888,1899,54575,       0.09899999993,0,0,0,0,0,0,0,0,0,0,0,0,0,0,0,0,0,0,0,0,
1202,250,250,'0x81FF',21,84,'0x685B',         54576.09888,1899,54576,       0.09899999993,0,0,0,0,0,0,0,0,0,0,0,0,0,0,0,0,0,0,0,0,
1207,251,251,'0x81FF',21,84,'0x585A',         54577.09888,1899,54577,       0.09899999993,0,0,0,0,0,0,0,0,0,0,0,0,0,0,0,0,0,0,0,0,
1213,252,252,'0x81FF',21,84,'0x4859',         54578.09888,1899,54578,       0.09899999993,0,0,0,0,0,0,0,0,0,0,0,0,0,0,0,0,0,0,0,0,
1219,253,253,'0x81FF',21,84,'0x3858',         54579.09888,1899,54579,       0.09899999993,0,0,0,0,0,0,0,0,0,0,0,0,0,0,0,0,0,0,0,0,
1224,254,254,'0x81FF',21,84,'0x2857',         54580.09888,1899,54580,       0.09899999993,0,0,0,0,0,0,0,0,0,0,0,0,0,0,0,0,0,0,0,0,
1230,255,255,'0x81FF',21,84,'0x1856',         54581.09888,1899,54581,       0.09899999993,0,0,0,0,0,0,0,0,0,0,0,0,0,0,0,0,0,0,0,0,
1236,256,256,'0x81FF',21,84,'0x855',         54582.09888,1899,54582,       0.09899999993,0,0,0,0,0,0,0,0,0,0,0,0,0,0,0,0,0,0,0,0,
1241,257,257,'0x81FF',21,84,'0xF854',         54583.09888,1899,54583,       0.09899999993,0,0,0,0,0,0,0,0,0,0,0,0,0,0,0,0,0,0,0,0,
1247,258,258,'0x81FF',21,84,'0xE853',         54584.09888,1899,54584,       0.09899999993,0,0,0,0,0,0,0,0,0,0,0,0,0,0,0,0,0,0,0,0,
1253,259,259,'0x81FF',21,84,'0xD852',         54585.09888,1899,54585,       0.09899999993,0,0,0,0,0,0,0,0,0,0,0,0,0,0,0,0,0,0,0,0,
1258,260,260,'0x81FF',21,84,'0xB796',         54586.09888,1899,54586,       0.09899999993,0,1,2,5,         34.29537964,         -117.972084,         147.9477539,         114.3717804,         99.69522095,         7.854827404,     -0.007528454531,      0.004605894908,    -0.0001077255438,      -0.01003804617,0,0,0,0,0,0,
1264,261,261,'0x81FF',21,84,'0xE467',         54587.09888,1899,54587,       0.09899999993,0,1,2,5,         34.29627609,        -117.9720001,          147.710083,         114.1363678,         99.69205475,         7.850195885,      0.002356551122,     -0.004416163545,    -0.0002179533185,     -0.003813724499,0,0,0,0,0,0,
1270,262,262,'0x81FF',21,84,'0xF8E6',         54588.09888,1899,54588,       0.09899999993,0,1,2,5,         34.29717636,        -117.9719162,         147.4828186,         113.9113846,         99.68830872,         7.854765415,      -0.01538005099,     -0.004473218229,      0.008890719153,      -0.03509872407,0,0,0,0,0,0,
1275,263,263,'0x81FF',21,84,'0x23D5',         54589.09888,1899,54589,       0.09899999993,0,1,2,5,         34.29807281,        -117.9718323,         147.2494202,         113.6802444,         99.68933868,          7.85933733,      0.003154750913,      0.001452128403,      0.007319894619,       0.00680176774,0,0,0,0,0,0,
1281,264,264,'0x81FF',21,84,'0x2F6B',         54590.09888,1899,54590,       0.09899999993,0,1,2,5,         34.29897308,        -117.9717407,         147.0166473,         113.4497604,         99.69364929,         7.855151176,      0.006589211989,      0.004297859967,      -0.00254861312,      -0.01292432938,0,0,0,0,0,0,
1287,265,265,'0x81FF',21,84,'0x5178',         54591.09888,1899,54591,       0.09899999993,0,1,2,5,         34.29987335,        -117.9716568,         146.8040466,         113.2394257,         99.68939972,         7.850531578,     -0.001586698578,     -0.005575961899,    -0.0006940986495,       -0.0221537184,0,0,0,0,0,0,
1292,266,266,'0x81FF',21,84,'0xF4D4',         54592.09888,1899,54592,       0.09899999993,0,1,2,5,         34.30076981,        -117.9715729,           146.59198,         113.0296555,         99.68919373,          7.85527277,      -0.01065286901,    -0.0003965897486,      0.009981295094,      -0.02214298211,0,0,0,0,0,0,
1298,267,267,'0x81FF',21,84,'0xB4CC',         54593.09888,1899,54593,       0.09899999993,0,1,2,5,         34.30167007,         -117.971489,         146.3889618,         112.8289261,         99.68882751,         7.857813358,     -0.009450959973,    -0.0008503289428,      0.005851892289,      -0.01175502129,0,0,0,0,0,0,
1304,268,268,'0x81FF',21,84,'0x8756',         54594.09888,1899,54594,       0.09899999993,0,1,2,5,         34.30256653,         -117.971405,         146.1790466,         112.6212997,         99.69651031,         7.853695393,     -0.005857873242,      0.006449139211,     -0.001198839396,      -0.01065340545,0,0,0,0,0,0,
1309,269,269,'0x81FF',21,84,'0x374B',         54595.09888,1899,54595,       0.09899999993,0,1,2,5,          34.3034668,        -117.9713135,         145.9736633,         112.4182053,         99.69097137,         7.854389191,      0.006354750134,     -0.009159884416,      0.005133657716,    -0.0004249173217,0,0,0,0,0,0,
1315,270,270,'0x81FF',21,84,'0xA349',         54596.09888,1899,54596,       0.09899999993,0,1,2,5,         34.30436707,        -117.9712296,         145.7622375,         112.2090836,         99.68465424,         7.853615761,       0.00171242957,     -0.007019125391,      0.002823370509,      -0.01892025582,0,0,0,0,0,0,
1321,271,271,'0x81FF',21,84,'0xBD23',         54597.09888,1899,54597,       0.09899999993,0,1,2,5,         34.30526352,        -117.9711456,         145.5567322,         112.0058746,         99.68714142,         7.853692532,    -0.0002549536584,      0.001625503064,      0.003597493051,      -0.01516331919,0,0,0,0,0,0,
1326,272,272,'0x81FF',21,84,'0xE6DA',         54598.09888,1899,54598,       0.09899999993,0,1,2,5,         34.30616379,        -117.9710617,         145.3635101,          111.814949,         99.69540405,         7.856764317,      -0.00867058523,       0.00810845755,      0.007012493908,      -0.02178333327,0,0,0,0,0,0,
1332,273,273,'0x81FF',21,84,'0xBFFE',         54599.09888,1899,54599,       0.09899999993,0,1,2,5,         34.30706024,        -117.9709778,         145.1797028,         111.6334534,         99.69503021,         7.851962566,      -0.01212449092,     -0.002693202579,     -0.001838050899,      -0.01506774966,0,0,0,0,0,0,
1338,274,274,'0x81FF',21,84,'0xDF32',         54600.09888,1899,54600,       0.09899999993,0,1,2,5,         34.30796051,        -117.9708939,         144.9923859,         111.4484558,         99.68750763,         7.854239941,      0.003379480448,     -0.007539203856,      0.007722872309,      0.005437077023,0,0,0,0,0,0,
1343,275,275,'0x81FF',21,84,'0xB715',         54601.09888,1899,54601,       0.09899999993,0,1,2,5,         34.30886078,        -117.9708023,         144.8023987,          111.260788,         99.68880463,          7.85885191,      0.003705654293,      0.001389735145,      0.008722421713,      -0.01228870358,0,0,0,0,0,0,
1349,276,276,'0x81FF',21,84,'0xA0EA',         54602.09888,1899,54602,       0.09899999993,0,1,2,5,         34.30975723,        -117.9707184,         144.6153412,         111.0760574,         99.68875122,          7.85567522,     -0.005762293003,    -0.0007462300709,    -0.0005397347268,      -0.02252372168,0,0,0,0,0,0,
1355,277,277,'0x81FF',21,84,'0x3F2',         54603.09888,1899,54603,       0.09899999993,0,1,2,5,          34.3106575,        -117.9706345,         144.4308167,         110.8938446,         99.69294739,         7.850191116,      -0.00135371706,      0.004330380354,     -0.003447160823,     -0.008481167257,0,0,0,0,0,0,
1360,278,278,'0x81FF',21,84,'0x6D53',         54604.09888,1899,54604,       0.09899999993,0,1,2,5,         34.31155396,        -117.9705505,         144.2581177,         110.7234802,         99.69416809,         7.854836464,     -0.001373833744,    -0.0007140748203,       0.01064708829,      -0.01021629199,0,0,0,0,0,0,
1366,279,279,'0x81FF',21,84,'0xDE44',         54605.09888,1899,54605,       0.09899999993,0,1,2,5,         34.31245422,        -117.9704666,         144.0967407,         110.5644302,         99.68837738,         7.854868412,     -0.008197634481,     -0.007734810933,      0.004088425077,      -0.01737368666,0,0,0,0,0,0,
1372,280,280,'0x81FF',21,84,'0x6CF3',         54606.09888,1899,54606,       0.09899999993,0,1,2,5,         34.31335449,        -117.9703827,         143.9311981,         110.4012222,         99.68823242,         7.855373859,     -0.001635213383,     -0.001013720757,      0.004425802734,     -0.002314788988,0,0,0,0,0,0,
1377,281,281,'0x81FF',21,84,'0xF2F0',         54607.09888,1899,54607,       0.09899999993,0,1,2,5,         34.31425095,        -117.9702911,         143.7616272,         110.2339935,         99.69064331,         7.854559898,      0.001148579526,      0.001406760304,      0.003013820853,     -0.007837785408,0,0,0,0,0,0,
1383,282,282,'0x81FF',21,84,'0x4130',         54608.09888,1899,54608,       0.09899999993,0,1,2,5,         34.31515121,        -117.9702072,         143.5980835,         110.0727921,         99.69007111,         7.853578568,      0.002946699504,     -0.003730460769,      0.002031017095,     -0.008349894546,0,0,0,0,0,0,
1389,283,283,'0x81FF',21,84,'0x7E60',         54609.09888,1899,54609,       0.09899999993,0,1,2,5,         34.31604767,        -117.9701233,         143.4334259,         109.9104843,         99.69155884,         7.850718498,       0.00141254894,      0.001107792603,     0.0004305506009,      -0.01106001344,0,0,0,0,0,0,
1394,284,284,'0x81FF',21,84,'0x21F6',         54610.09888,1899,54610,       0.09899999993,0,1,2,5,         34.31694794,        -117.9700394,         143.2826691,         109.7620697,          99.6917572,         7.853496552,      -0.01071292255,     -0.001094780979,      0.007352318149,      -0.02245937474,0,0,0,0,0,0,
1400,285,285,'0x81FF',21,84,'0x1A29',         54611.09888,1899,54611,       0.09899999993,0,1,2,5,         34.31784821,        -117.9699554,         143.1376495,            109.6194,         99.68904114,         7.855927467,      0.003653205466,     -0.004361008294,      0.004681548104,      0.007737011183,0,0,0,0,0,0,
1406,286,286,'0x81FF',21,84,'0xA3F9',         54612.09888,1899,54612,       0.09899999993,0,1,2,5,         34.31874466,        -117.9698715,         142.9835205,         109.4676285,         99.68973541,         7.857078075,      0.004439269658,    7.194652881e-006,      0.004700640216,     -0.009837185964,0,0,0,0,0,0,
1411,287,287,'0x81FF',21,84,'0x8928',         54613.09888,1899,54613,       0.09899999993,0,1,2,5,         34.31964493,          -117.96978,         142.8325348,         109.3190002,         99.69097137,         7.854869843,     -0.007518341299,     0.0004367780057,     0.0005714250728,      -0.02111491561,0,0,0,0,0,0,
1417,288,288,'0x81FF',21,84,'0xA431',         54614.09888,1899,54614,       0.09899999993,0,1,2,5,         34.32054138,         -117.969696,            142.6987,         109.1875381,         99.69019318,         7.851509571,    -0.0001110961311,      -0.00174000999,     0.0006926498027,     0.0008539287373,0,0,0,0,0,0,
1423,289,289,'0x81FF',21,84,'0x64F2',         54615.09888,1899,54615,       0.09899999993,0,1,2,5,         34.32144165,        -117.9696121,         142.5525055,         109.0437012,         99.68952179,         7.852626801,      0.006967804395,     -0.001383790514,      0.004380557686,     -0.001341263996,0,0,0,0,0,0,
1428,290,290,'0x81FF',21,84,'0x2943',         54616.09888,1899,54616,       0.09899999993,0,1,2,5,         34.32234192,        -117.9695282,         142.4067841,         108.9003677,         99.69225311,         7.855703831,    -0.0004607677693,      0.001112147584,      0.007230816875,      -0.01895148307,0,0,0,0,0,0,
1434,291,291,'0x81FF',21,84,'0x7DD',         54617.09888,1899,54617,       0.09899999993,0,1,2,5,         34.32323837,        -117.9694443,         142.2667236,         108.7626724,         99.69241333,         7.854264259,      -0.01016603783,    -0.0006666664267,      0.001941690105,      -0.01876641624,0,0,0,0,0,0,
1440,292,292,'0x81FF',21,84,'0x7DE3',         54618.09888,1899,54618,       0.09899999993,0,1,2,5,         34.32413864,        -117.9693604,         142.1446838,          108.643013,         99.68753052,         7.853211403,      0.005499819759,     -0.006985164713,      0.002400320256,       0.01117048413,0,0,0,0,0,0,
1445,293,293,'0x81FF',21,84,'0x84C6',         54619.09888,1899,54619,       0.09899999993,0,1,2,5,          34.3250351,        -117.9692688,         142.0016632,         108.5023651,         99.69093323,         7.854548931,    -0.0009207205148,      0.004824648611,      0.004989642184,      -0.01748791896,0,0,0,0,0,0,
1451,294,294,'0x81FF',21,84,'0x94CE',         54620.09888,1899,54620,       0.09899999993,0,1,2,5,         34.32593536,        -117.9691849,         141.8876038,         108.3906937,         99.69142151,         7.856478214,     -0.004909540527,    -0.0007373375702,      0.006153805647,      -0.01044021733,0,0,0,0,0,0,
1457,295,295,'0x81FF',21,84,'0xBA83',         54621.09888,1899,54621,       0.09899999993,0,1,2,5,         34.32683182,         -117.969101,         141.7521362,         108.2576141,         99.69241333,         7.855291367,      0.002244191943,    5.711413178e-005,      0.002135052113,     0.0003071959945,0,0,0,0,0,0,
1462,296,296,'0x81FF',21,84,'0xEB18',         54622.09888,1899,54622,       0.09899999993,0,1,2,5,         34.32773209,         -117.969017,         141.6159973,         108.1238632,         99.68784332,         7.850879669,      0.007188217249,     -0.006442271173,     -0.001586311264,     -0.003598360112,0,0,0,0,0,0,
1468,297,297,'0x81FF',21,84,'0xBE35',         54623.09888,1899,54623,       0.09899999993,0,1,2,5,         34.32863235,        -117.9689331,           141.48703,         107.9972839,         99.69005585,         7.849282265,    -0.0006829780759,      0.001641805167,       0.00325509184,      -0.01682987623,0,0,0,0,0,0,
1474,298,298,'0x81FF',21,84,'0xDB58',         54624.09888,1899,54624,       0.09899999993,0,1,2,5,         34.32952881,        -117.9688492,         141.3656921,         107.8783493,         99.68968964,         7.858226299,     -0.007835673168,     -0.001572336652,       0.01344009023,      -0.01576429419,0,0,0,0,0,0,
1479,299,299,'0x81FF',21,84,'0xB880',         54625.09888,1899,54625,       0.09899999993,0,1,2,5,         34.33042908,        -117.9687576,         141.2497101,         107.7647629,         99.69358063,         7.856153965,     -0.002584436908,      0.002805257216,     0.0008306534728,    -0.0006631209981,0,0,0,0,0,0,
1485,300,300,'0x81FF',21,84,'0xBC9B',         54626.09888,1899,54626,       0.09899999993,0,1,2,5,         34.33132553,        -117.9686737,         141.1285095,         107.6459732,          99.6894989,         7.854412079,    3.516162224e-006,     -0.006658565253,      0.001390984864,     -0.005147701129,0,0,0,0,0,0,
1491,301,301,'0x81FF',21,84,'0x36E3',         54627.09888,1899,54627,       0.09899999993,0,1,2,5,          34.3322258,        -117.9685898,         141.0052185,         107.5250854,         99.69093323,          7.85137701,      0.007736859843,     0.0008435337804,     0.0002023612906,      0.001893771929,0,0,0,0,0,0,
1496,302,302,'0x81FF',21,84,'0x91FA',         54628.09888,1899,54628,       0.09899999993,0,1,2,5,         34.33312607,        -117.9685059,         140.8806152,         107.4028931,         99.68895721,         7.850924015,      0.004323120695,     -0.003892719746,      0.003571645124,      -0.01136265229,0,0,0,0,0,0,
1502,303,303,'0x81FF',21,84,'0x491F',         54629.09888,1899,54629,       0.09899999993,0,1,2,5,         34.33402252,        -117.9684219,         140.7679749,         107.2926788,         99.69080353,         7.854761124,      0.002931365278,     0.0008140561986,      0.008247908205,     -0.006997575983,0,0,0,0,0,0,
1508,304,304,'0x81FF',21,84,'0x8C4D',         54630.09888,1899,54630,       0.09899999993,0,1,2,5,         34.33492279,         -117.968338,         140.6473541,         107.1744614,         99.68871307,         7.859743595,     -0.007824328728,     -0.004937017802,      0.009349401109,      -0.01863428205,0,0,0,0,0,0,
1513,305,305,'0x81FF',21,84,'0x2EE3',         54631.09888,1899,54631,       0.09899999993,0,1,2,5,         34.33581924,        -117.9682465,         140.5454407,         107.0749664,         99.69158936,         7.857820988,     -0.002696850104,      0.002857247833,    -0.0001351312385,     0.0003324462159,0,0,0,0,0,0,
1519,306,306,'0x81FF',21,84,'0x634B',         54632.09888,1899,54632,       0.09899999993,0,1,2,5,         34.33671951,        -117.9681625,         140.4447479,         106.9767075,         99.69021606,         7.848013878,      0.007832099684,     -0.003997557797,     -0.007416548207,      0.005248032976,0,0,0,0,0,0,
1525,307,307,'0x81FF',21,84,'0x3D01',         54633.09888,1899,54633,       0.09899999993,0,1,2,5,         34.33761978,        -117.9680786,         140.3362122,         106.8705978,         99.69280243,         7.846681118,      0.007133954205,      0.002728326013,      0.003007428488,     -0.007738864049,0,0,0,0,0,0,
1530,308,308,'0x81FF',21,84,'0x945C',         54634.09888,1899,54634,       0.09899999993,0,1,2,5,         34.33851624,        -117.9679947,         140.2281189,         106.7649231,         99.68893433,         7.854833603,     -0.001094783773,      -0.00510753924,       0.01317040343,      -0.01466457359,0,0,0,0,0,0,
1536,309,309,'0x81FF',21,84,'0x9CFA',         54635.09888,1899,54635,       0.09899999993,0,1,2,5,          34.3394165,        -117.9679108,         140.2071686,         106.7464066,         99.74362946,         7.834162235,       -0.1823121607,       0.05852344632,      -0.01930481941,       -0.2029723078,0,0,0,0,0,0,
1542,310,310,'0x81FF',21,84,'0x992C',         54636.09888,1899,54636,       0.09899999993,0,1,2,5,         34.34031677,        -117.9678268,         140.2259064,         106.7675858,         99.70094299,         7.851558208,      -0.04138631746,      -0.05392017961,       0.02161661908,        0.1648934782,0,0,0,0,0,0,
1547,311,311,'0x81FF',21,84,'0xC64B',         54637.09888,1899,54637,       0.09899999993,0,1,2,5,         34.34121323,        -117.9677353,         140.0984039,         106.6425323,         99.65735626,         7.866025925,        0.1095629334,      -0.04476011172,       0.01749927364,        0.1430581957,0,0,0,0,0,0,
1553,312,312,'0x81FF',21,84,'0x5B95',         54638.09888,1899,54638,       0.09899999993,0,1,2,5,         34.34211349,        -117.9676514,         139.9150696,         106.4616241,         99.67299652,         7.858319759,       0.07230365276,       0.01961504482,     -0.004468475003,      -0.05932660401,0,0,0,0,0,0,
1559,313,313,'0x81FF',21,84,'0x3622',         54639.09888,1899,54639,       0.09899999993,0,1,2,5,         34.34300995,        -117.9675674,         139.7977753,         106.3467865,         99.70293427,         7.847335815,      -0.03961564973,       0.02989708446,     -0.007617443334,       -0.1223700419,0,0,0,0,0,0,
1564,314,314,'0x81FF',21,84,'0xEC3',         54640.09888,1899,54640,       0.09899999993,0,1,2,5,         34.34391022,        -117.9674835,         139.7545166,         106.3059616,         99.70519257,         7.849142551,      -0.05685113743,     -0.001800100319,      0.004720093682,      -0.01410502288,0,0,0,0,0,0,
1570,315,315,'0x81FF',21,84,'0x12F7',         54641.09888,1899,54641,       0.09899999993,0,1,2,5,         34.34481049,        -117.9673996,         139.6862793,         106.2401886,         99.68973541,         7.855781555,     -0.001839985023,      -0.01801134832,      0.008765509352,       0.05607166141,0,0,0,0,0,0,
1576,316,316,'0x81FF',21,84,'0x8171',         54642.09888,1899,54642,       0.09899999993,0,1,2,5,         34.34570694,         -117.967308,         139.5818939,         106.1382446,         99.67840576,         7.857900143,        0.0358369723,      -0.01210845914,      0.003880064236,       0.03025005013,0,0,0,0,0,0,
1581,317,317,'0x81FF',21,84,'0xF2EF',         54643.09888,1899,54643,       0.09899999993,0,1,2,5,         34.34660721,        -117.9672241,         139.4643555,         106.0231628,         99.68746948,         7.850003242,       0.02094784379,      0.009261470288,     -0.006074571051,      -0.02398001403,0,0,0,0,0,0,
1587,318,318,'0x81FF',21,84,'0xC416',         54644.09888,1899,54644,       0.09899999993,0,1,2,5,         34.34750366,        -117.9671402,         139.3669128,         105.9281845,         99.69916534,         7.853010178,     -0.008645814843,       0.01059706789,      0.007395024877,      -0.03406497091,0,0,0,0,0,0,
1593,319,319,'0x81FF',21,84,'0xAA69',         54645.09888,1899,54645,       0.09899999993,0,1,2,5,         34.34840393,        -117.9670563,         139.2958221,         105.8595657,         99.69469452,         7.850391388,     -0.007558941841,     -0.005754724145,    -0.0001808055822,     0.0003645630204,0,0,0,0,0,0,
1598,320,320,'0x81FF',21,84,'0xD428',         54646.09888,1899,54646,       0.09899999993,0,1,2,5,          34.3493042,        -117.9669724,         139.2110901,          105.777298,         99.69008636,         7.854460716,     -0.002450425643,     -0.005361245479,      0.007132232655,     0.0006805410958,0,0,0,0,0,0,
1604,321,321,'0x81FF',21,84,'0x47F4',         54647.09888,1899,54647,       0.09899999993,0,1,2,5,         34.35020065,        -117.9668884,          139.132309,         105.7009735,         99.68582153,         7.855017185,      0.001923880191,     -0.004873540252,      0.002703602426,      0.001339236856,0,0,0,0,0,0,
1610,322,322,'0x81FF',21,84,'0xA1B4',         54648.09888,1899,54648,       0.09899999993,0,1,2,5,         34.35110092,        -117.9667969,         139.0353241,         105.6064606,         99.69031525,         7.854948044,      0.006564789917,      0.005415985361,      0.001707445597,    -0.0001307155326,0,0,0,0,0,0,
1615,323,323,'0x81FF',21,84,'0x1281',         54649.09888,1899,54649,       0.09899999993,0,1,2,5,         34.35199738,         -117.966713,         138.9461365,         105.5197449,         99.69288635,         7.849991798,      0.004633870907,      0.001589420135,     -0.002269723685,     -0.005887825973,0,0,0,0,0,0,
1621,324,324,'0x81FF',21,84,'0x4B74',         54650.09888,1899,54650,       0.09899999993,0,1,2,5,         34.35289764,         -117.966629,         138.8661499,         105.4422379,         99.69098663,         7.855341434,     -0.001753535471,     -0.003331118496,      0.008082890883,      -0.01242361031,0,0,0,0,0,0,
1627,325,325,'0x81FF',21,84,'0x52DB',         54651.09888,1899,54651,       0.09899999993,0,1,2,5,         34.35379791,        -117.9665451,         138.7835388,         105.3621063,         99.68733978,         7.855587006,    -0.0003678308276,     -0.004242154304,      0.002108894289,     -0.003207705449,0,0,0,0,0,0,
1632,326,326,'0x81FF',21,84,'0xD89B',         54652.09888,1899,54652,       0.09899999993,0,1,2,5,         34.35469437,        -117.9664612,          138.701889,         105.2829437,         99.69234467,         7.850447655,      0.005880933721,      0.005894901697,     -0.002180211712,      0.003834970994,0,0,0,0,0,0,
1638,327,327,'0x81FF',21,84,'0x18EB',         54653.09888,1899,54653,       0.09899999993,0,1,2,5,         34.35559464,        -117.9663773,         138.6150055,         105.1985397,         99.69663239,         7.850495815,      0.009049678221,      0.003625805955,      0.003180863569,      -0.00181319681,0,0,0,0,0,0,
1644,328,328,'0x81FF',21,84,'0x7947',         54654.09888,1899,54654,       0.09899999993,0,1,2,5,         34.35649109,        -117.9662857,         138.5357361,         105.1217575,         99.69111633,         7.855521679,     -0.001490591909,     -0.007986431941,       0.00807532575,      -0.01576112397,0,0,0,0,0,0,
1649,329,329,'0x81FF',21,84,'0x9B40',         54655.09888,1899,54655,       0.09899999993,0,1,2,5,         34.35739136,        -117.9662018,         138.4652405,         105.0537567,         99.68784332,         7.855755806,     -0.009522988461,     -0.002685464453,      0.001333858585,      -0.01195105538,0,0,0,0,0,0,
1655,330,330,'0x81FF',21,84,'0x2895',         54656.09888,1899,54656,       0.09899999993,0,1,2,5,         34.35828781,        -117.9661179,         138.3986816,         104.9896927,         99.68881989,         7.849101543,      0.003078506561,      0.000151921311,     -0.004260717891,       0.01036276575,0,0,0,0,0,0,
1661,331,331,'0x81FF',21,84,'0x199C',         54657.09888,1899,54657,       0.09899999993,0,1,2,5,         34.35918808,        -117.9660339,         138.3200226,         104.9135284,         99.69037628,         7.850814342,      0.009533255361,   -2.098962068e-005,      0.005282599013,      0.002872575773,0,0,0,0,0,0,
1666,332,332,'0x81FF',21,84,'0xE810',         54658.09888,1899,54658,       0.09899999993,0,1,2,5,         34.36008835,          -117.96595,         138.2412109,         104.8372192,         99.69329834,         7.856231689,      0.003121074056,      0.002225139178,      0.009112587199,        -0.011298717,0,0,0,0,0,0,
1672,333,333,'0x81FF',21,84,'0x550F',         54659.09888,1899,54659,       0.09899999993,0,1,2,5,          34.3609848,        -117.9658661,         138.1648865,         104.7633972,         99.69341278,         7.855400562,      0.004558449611,    -0.0004375664867,     0.0006891895318,     -0.003152652411,0,0,0,0,0,0,
1678,334,334,'0x81FF',21,84,'0x48F0',         54660.09888,1899,54660,       0.09899999993,0,1,2,5,         34.36188507,        -117.9657745,         138.0941467,         104.6951675,         99.68930817,         7.850922585,     -0.003408628749,     -0.005497130565,     -0.002332841512,      -0.01202300657,0,0,0,0,0,0,
1683,335,335,'0x81FF',21,84,'0xE990',         54661.09888,1899,54661,       0.09899999993,0,1,2,5,         34.36278152,        -117.9656906,          138.022995,         104.6265106,         99.68921661,         7.851116657,     -0.003639597679,    -0.0003564182261,      0.002259643283,     -0.003630513791,0,0,0,0,0,0,
1689,336,336,'0x81FF',21,84,'0x7E3D',         54662.09888,1899,54662,       0.09899999993,0,1,2,5,         34.36368179,        -117.9656067,         137.9547272,         104.5607605,         99.69128418,         7.853602409,      0.006657173857,     0.0007132757455,      0.004317052197,      0.007653356995,0,0,0,0,0,0,
1695,337,337,'0x81FF',21,84,'0xF15A',         54663.09888,1899,54663,       0.09899999993,0,1,2,5,         34.36458206,        -117.9655228,         137.8840027,         104.4925537,         99.69075775,         7.855733871,      0.007291256916,    -0.0008583196322,      0.004871317185,     -0.002509300364,0,0,0,0,0,0,
1700,338,338,'0x81FF',21,84,'0x8678',         54664.09888,1899,54664,       0.09899999993,0,1,2,5,         34.36547852,        -117.9654388,         137.8114471,         104.4225006,         99.68955994,         7.854874134,      0.005307803862,     -0.001486413414,      0.001210206188,     -0.006415208802,0,0,0,0,0,0,
1706,339,339,'0x81FF',21,84,'0x8826',         54665.09888,1899,54665,       0.09899999993,0,1,2,5,         34.36637878,        -117.9653473,          137.736496,         104.3500748,         99.69113922,         7.850448132,      0.002327319235,      0.001145444112,      -0.00282590976,     -0.005707398988,0,0,0,0,0,0,
1712,340,340,'0x81FF',21,84,'0x9657',         54666.09888,1899,54666,       0.09899999993,0,1,2,5,         34.36727524,        -117.9652634,         137.6752014,         104.2912903,         99.69255829,         7.849441051,     -0.007259918842,       0.00123843085,           0.0011008,      -0.01382205263,0,0,0,0,0,0,
1717,341,341,'0x81FF',21,84,'0xB389',         54667.09888,1899,54667,       0.09899999993,0,1,2,5,         34.36817551,        -117.9651794,         137.6178741,         104.2364807,         99.69311523,         7.853547096,      0.001979348715,     -0.001385944779,      0.006048145238,      0.007164101582,0,0,0,0,0,0,
